경도,위도,주소
129.0648295,35.09434841,부산광역시 청학2동 태종로 365
129.0617772,35.09643444,부산광역시 청학2동 태종로 329
129.0485539,35.09251885,부산광역시 봉래2동 한진중공업
129.043354,35.09366575,부산광역시 봉래1동 대교로 16
129.0430648,35.09324,부산광역시 봉래1동 대교로 15-2
129.044056,35.09206095,부산광역시 봉래2동 태종로 135
129.0380252,35.09329169,부산광역시 대교동 태종로 59
129.0374825,35.09279484,부산광역시 대교동 태종로 58-1
129.0411193,35.09149992,부산광역시 대교동 태종로 94-1 
129.0399177,35.0860795,부산광역시 영선2동 절영로 96-1
129.0807692,35.06864394,부산광역시 동삼2동 태종로 759
129.27541,35.77267147,부산광역시 동삼2동 한국해양대학교
129.0706214,35.07917821,부산광역시 동삼1동 동삼로 64 
129.0721388,35.08480599,부산광역시 동삼3동 선덤산길 2
129.276093,35.77195838,부산광역시 동삼3동 주공아파트 삼거리
129.0646,35.09102544,부산광역시 청학2동 구청 게시대
129.0537504,35.09567312,부산광역시 청학1동 태종로 236
129.0557088,35.09655196,부산광역시 청학1동 태종로 260 신도브래뉴
129.062964,35.09567756,부산광역시 청학2동 태종로 342 청학성당
129.0674969,35.08985203,부산광역시 청학2동 태종로 428 청학한라아파트 상가
129.0423233,35.08895664,부산광역시 영선1동 영선대로 89 청성아파트
129.0433835,35.08533667,부산광역시 신선동 영상길 3 제2영도교회
129.0404132,35.08625461,부산광역시 영선2동 절영로101번길 1
129.0385586,35.08927605,부산광역시 영선2동 절영로 59-1
129.0413281,35.08700377,부산광역시 영선2동 영선대로 65
129.0686054,35.09446415,부산광역시 청학2동 해양로 125
129.046299,35.09400916,부산광역시 봉래2동 태종로 164
129.0720559,35.0744081,부산광역시 동삼1동 와치로 287 동삼절영3차아파트
129.0610694,35.07124335,부산광역시 동삼1동 함지로 21 
129.0365052,35.09449434,부산광역시 남항동 태종로 40
129.0441191,35.08035037,부산광역시 영선2동 하나길 15
129.0540809,35.07348691,부산광역시 동삼1동 절영로 319
129.0912509,35.07831624,부산광역시 동삼1동 75광장
129.0671046,35.06991568,부산광역시 동삼1동 절영로 461
129.0707012,35.07504443,부산광역시 동삼1도 와치로 266
129.067593,35.07452115,부산광역시 동삼1동 중리로 41
129.062963,35.07184216,부산광역시 동삼1동 함지로 43
129.0809046,35.06280312,부산광역시 동삼2동 태종로 826
129.0750132,35.07242674,부산광역시 동삼2동 태종로 687 
129.0621286,35.08897697,부산광역시 청학2동 청학동로 18
128.0846038,35.20202789,부산광역시 봉래동 부산대교 밑 소공원
128.5624288,35.85989995,대구광역시 서구 달구벌대로 1807
128.5515561,35.85615378,대구 서구 내당동 463-34
128.5583695,35.87091911,대구광역시 서구 국채보상로 250-1
128.5592895,35.87232195,대구광역시 서구 국채보상로 257
128.5570685,35.87342187,대구광역시 서구 평리동 1621-12
128.5551994,35.87189932,대구광역시 서구 서대구로 156
128.5535064,35.88814342,대구광역시 서구 염색공단로 21
128.5551317,35.88528247,대구광역시 서구 서대구로 295
128.5559631,35.88990469,대구광역시 서구 팔달로 54
128.5439604,35.86905499,대구광역시 서구 국채보상로 117
128.5805772,35.88296343,대구광역시 서구 원대로13길 2
128.4994591,35.84489067,대구광역시 달서구 신당동 1973
128.5284147,35.84849392,대구광역시 달서구 장기동 810
128.5332531,35.84895692,대구광역시 달서구 달구벌대로 1530
128.5494289,35.85420252,대구광역시 달서구 달구벌대로 1676
128.5213372,35.81328325,대구광역시 달서구 월배로 62(진천동)
128.5555569,35.83745962,대구광역시 달서구 구마로 253-1(성당동)
128.5402837,35.81791147,대구광역시 달서구 상인서로85
128.5274057,35.84945335,대구광역시 달서구 달구벌대로 1467
128.5557906,35.83702933,대구광역시 달서구 구마로 256
128.5109675,35.80905344,대구 달성군 화원읍 비슬로 2705
128.5084945,35.80801828,대구광역시 달성군 화원읍 비슬로 2679
128.5082553,35.80737332,대구광역시 달성군 화원읍 비슬로 2674
128.5021168,35.80517863,대구광역시 달성군 화원읍 비슬로 2611
128.5031804,35.80493309,대구광역시 달성군 화원읍 비슬로 2620
128.4522551,35.65757814,대구광역시 달성군 화원읍 비슬로 257
128.4993283,35.80355989,대구광역시 달성군 화원읍 비슬로 2582
128.4932093,35.80133861,대구광역시 달성군 화원읍 비슬로 2519
128.4936012,35.80047653,대구광역시 달성군 화원읍 비슬로 506길 14
128.4907927,35.79934352,대구광역시 달성군 화원읍 비슬로 2490
128.4853074,35.79585097,대구광역시 달성군 화원읍 비슬로 2428
128.4891695,35.8075601,대구광역시 달성군 화원읍 사문진로 359
128.4882709,35.80749987,대구광역시 달성군 화원읍 사문진로 354
128.4858912,35.80815402,대구광역시 달성군 화원읍 성산리 83
128.4818417,35.81358138,대구광역시 달성군 화원읍 성산리 310
128.4921386,35.79755288,대구광역시 달성군 화원읍 명천로 243
128.4909947,35.80001236,대구광역시 달성군 화원읍 비슬로 2495
128.4981643,35.79954283,대구광역시 달성군 화원읍 명천로 181
128.5079475,35.80238908,대구광역시 달성군 화원읍 명천로17길 7-9
128.5126404,35.80383382,대구광역시 달성군 화원읍 명천로 57
128.5127798,35.80533495,대구광역시 달성군 화원읍 명천로 11
128.4940526,35.79806792,대구광역시 달성군 화원읍 명천로 231
128.4962275,35.79731846,대구광역시 달성군 화원읍 명곡로 30
128.4989095,35.79818652,대구광역시 달성군 화원읍 화암로 120
128.5016559,35.79877674,대구광역시 달성군 화원읍 화암로 122
128.4901434,35.79952918,대구광역시 달성군 화원읍 비슬로 2487
128.4889491,35.79937673,대구광역시 달성군 화원읍 성천로 8
128.486721,35.79762108,대구광역시 달성군 화원읍 비슬로 2451
128.4476536,35.72681006,대구광역시 달성군 논공읍 논공중앙로 106
128.4460838,35.72730143,대구광역시 달성군 논공읍 용호로 6
128.4331646,35.77686589,대구광역시 달성군 논공읍 봉동길 9-5
128.4313894,35.77466292,대구광역시 달성군 논공읍 달성군청로 33
128.4445501,35.72862079,대구광역시 달성군 논공읍 논공로 763
128.4204628,35.77418923,대구광역시 달성군 논공읍 비슬로 1779
128.4692484,35.85395001,대구광역시 달성군 다사읍 죽곡리 821-1
128.4381095,35.86387146,대구광역시 달성군 다사읍 문양리 418-3
128.4970864,35.87417402,대구광역시 달성군 다사읍 서재로 119-1
128.4574956,35.86054769,대구광역시 달성군 다사읍 달구벌대로 770
128.4580139,35.86151275,대구광역시 달성군 다사읍 달구벌대로 790
128.4610164,35.86011044,대구광역시 달성군 다사읍 달구벌대로 812
128.4615908,35.85928776,대구광역시 달성군 다사읍 달구벌대로 842-7
128.4594849,35.86272039,대구광역시 달성군 다사읍 달구벌대로 805
128.462307,35.86253436,대구광역시 달성군 다사읍 달구벌대로 839
128.4959139,35.86944265,대구광역시 달성군 다사읍 서재로 59
128.4642505,35.85783402,대구광역시 달성군 다사읍 달구벌대로 874
128.4668341,35.85694323,대구광역시 달성군 다사읍 달구벌대로 895
128.4587673,35.86509952,대구광역시 달성군 다사읍 다사로 59-5
128.4934519,35.86820652,대구광역시 달성군 다사읍 서재로 35
128.4965285,35.87661288,대구광역시 달성군 다사읍 서재로 145
128.4814696,35.87434663,대구광역시 달성군 다사읍 세천로 182-9
128.4657437,35.69437436,대구광역시 달성군 유가읍 테크노대로5길 57
128.4535885,35.69097306,대구광역시 달성군 현풍읍 테크노상업로 20
128.4554345,35.69296683,대구광역시 달성군 현풍읍 테크노상업로 50
128.6232318,35.8043413,대구광역시 달성군 가창면 가창로 1124
128.6226685,35.80471621,대구광역시 달성군 가창면 가창로 1121
128.6230237,35.80243192,대구광역시 달성군 가창면 가창로 1100
128.6348838,35.78952043,대구광역시 달성군 가창면 가창로176길 27
128.626243,35.79646262,대구광역시 달성군 가창면 가창로 1025
128.6272702,35.79662213,대구광역시 달성군 가창면 가창로 1008
128.638734,35.78718716,대구광역시 달성군 가창면 냉천리 38-4
128.6482451,35.76873977,대구광역시 달성군 가창면 가창로123길 2
128.4000508,35.87922847,대구광역시 달성군 하빈면 하목정2길 3
128.4077435,35.88257454,대구광역시 달성군 하빈면 하산리 672
128.4175493,35.87789409,대구광역시 달성군 하빈면 동곡리 124-1
128.4082304,35.86089074,대구광역시 달성군 하빈면 하빈남로 249
128.4206011,35.9053584,대구광역시 달성군 하빈면 묘리 715
128.421739,35.88655054,대구광역시 달성군 하빈면 감문리 813-2
128.4708954,35.79044151,대구광역시 달성군 옥포읍 비슬로 2283
128.4634038,35.7893939,대구광역시 달성군 옥포읍 비슬로 2215
128.4939119,35.75560529,대구광역시 달성군 옥포읍 반송리 170-1
128.46484,35.78737636,대구광역시 달성군 옥포읍 비슬로 2220
128.4316844,35.77921591,대구광역시 달성군 옥포읍 비슬로 1900-1
128.5210469,35.74830981,대구광역시 달성군 옥포읍 용연사길 260
128.4451381,35.78280744,대구광역시 달성군 옥포읍 돌미로5길 15
128.4396653,35.77940283,대구광역시 달성군 옥포읍 돌미로 49
128.4376229,35.6494263,대구광역시 달성군 구지면 구지동로10길 3
128.4134581,35.6590203,대구광역시 달성군 구지면 창리로11길 38
128.4132541,35.65930369,대구광역시 달성군 구지면 창리로11길 51
128.4025756,35.62980428,대구광역시 달성군 구지면 대암리 180
128.416867,35.65498566,대구광역시 달성군 구지면 과학마을로2길 5-22
128.4181789,35.65486855,대구광역시 달성군 구지면 과학마을로4길 49
128.4111652,35.65247341,대구광역시 달성군 국가산단대로 구지면 응암리 1232
127.4187771,36.36615933,대전광역시 대덕구 대화동 16-135
127.4156539,36.36771422,대전광역시 대덕구 대화동 37-9
127.4013556,36.36826948,대전광역시 대덕구 대화동 530-4
127.411719,36.36728652,대전광역시 대덕구 대화동 40-47
127.4197602,36.36863849,대전광역시 대덕구 대화동 4-1
127.4203109,36.36804889,대전광역시 대덕구 대화동 561-10
127.411858,36.36718232,대전광역시 대덕구 대화동 40-81
127.4231144,36.40119219,대전광역시 대덕구 신탄진로 232
127.4148433,36.35462959,대전광역시 대덕구 오정동 275-8
127.4118483,36.3519692,대전광역시 대덕구 오정동 243-5
127.4177697,36.36235388,대전광역시 대덕구 오정동 10-106
127.4222094,36.35149332,대전광역시 대덕구 오정동 172-1
127.4223048,36.35120797,대전광역시 대덕구 오정동 172-7
127.4243762,36.35107344,대전광역시 대덕구 오정동 175-48
127.4195762,36.35048571,대전광역시 대덕구 오정동 236-1
127.4161176,36.3488852,대전광역시 대덕구 오정동 448-10
127.4166954,36.34905077,대전광역시 대덕구 오정동 448-11
127.4151172,36.35642412,대전광역시 대덕구 오정동 708
127.407708,36.35482193,대전광역시 대덕구 오정동 715
127.4111293,36.35206622,대전광역시 대덕구 오정동 726
127.413315,36.34997653,대전광역시 대덕구 오정동 370-10
127.4145118,36.34965957,대전광역시 대덕구 오정동 387-4
127.4161357,36.34846111,대전광역시 대덕구 오정동 734-1
127.4194195,36.34905557,대전광역시 대덕구 오정동 735
127.4182026,36.34631777,대전광역시 대덕구 오정동 753
127.4231065,36.40026403,대전광역시 대덕구 와동 39-16
127.4233574,36.40035262,대전광역시 대덕구 와동 375
127.4255734,36.38356585,대전광역시 대덕구 읍내동 109-4
127.4240228,36.38047413,대전광역시 대덕구 읍내동 168-10
127.4208492,36.37707264,대전광역시 대덕구 읍내동 227-6
127.421527,36.37451161,대전광역시 대덕구 읍내동 317
127.4179104,36.37480371,대전광역시 대덕구 읍내동 482-1
127.4179415,36.37455001,대전광역시 대덕구 읍내동 482-19
127.4203047,36.3707367,대전광역시 대덕구 읍내동 550
127.4248967,36.3807555,대전광역시 대덕구 읍내동 91-7
127.4209541,36.37620064,대전광역시 대덕구 읍내동 579
127.4268661,36.3782041,대전광역시 대덕구 읍내동 71-1
127.4230884,36.39937118,대전광역시 대덕구 신대동 209-1
127.4230311,36.39709307,대전광역시 대덕구 신대동 366-1
127.4435058,36.35366307,대전광역시 대덕구 송촌동 367
127.4328146,36.36846159,대전광역시 대덕구 법동 213
127.4411898,36.36454501,대전광역시 대덕구 송촌동 523
127.4310876,36.36904789,대전광역시 대덕구 법동 191-1
127.4264833,36.37217356,대전광역시 대덕구 법동 370
127.4268323,36.36982123,대전광역시 대덕구 법동 371
127.4288569,36.370973,대전광역시 대덕구 법동 372
127.4264277,36.36673577,대전광역시 대덕구 법동 374
127.4533715,36.3569466,대전광역시 대덕구 비래동 146-2
127.4462356,36.35792285,대전광역시 대덕구 비래동 520
127.4484172,36.35424623,대전광역시 대덕구 비래동 540
127.4263118,36.36103562,대전광역시 대덕구 중리동 165-20
127.4299867,36.36146335,대전광역시 대덕구 중리동 174-1
127.4309091,36.36117409,대전광역시 대덕구 중리동 181-1
127.4285551,36.36084612,대전광역시 대덕구 중리동 197-10
127.4270256,36.36067521,대전광역시 대덕구 중리동 207-5
127.4214653,36.36181564,대전광역시 대덕구 중리동 275-29
127.4224099,36.36436636,대전광역시 대덕구 중리동 412
127.4252197,36.36239983,대전광역시 대덕구 중리동 418
127.4250697,36.35878822,대전광역시 대덕구 중리동 424
127.4209017,36.35890305,대전광역시 대덕구 중리동 448
127.4310601,36.36321821,대전광역시 대덕구 중리동 450
127.4283738,36.35910342,대전광역시 대덕구 중리동 469
127.4257659,36.43664578,대전광역시 대덕구 평촌동 544
127.4304283,36.45171615,대전광역시 대덕구 대청로 17
127.4235489,36.44553991,대전광역시 대덕구 덕암동 336
127.4246023,36.44123687,대전광역시 대덕구 덕암동45-10
127.4163137,36.44480789,대전광역시 대덕구 목상동 234
127.4131945,36.44827215,대전광역시 대덕구 목상동 185-1
127.4108166,36.44860118,대전광역시 대덕구 목상동 91-4
127.4008688,36.44239877,대전광역시 대덕구 문평동 92
127.4217838,36.42999169,대전광역시 대덕구 상서동 279-1
127.4222912,36.43022876,대전광역시 대덕구 상서동 282
127.4261882,36.45057177,대전광역시 대덕구 석봉동 747
127.424375,36.45053429,대전광역시 대덕구 석봉동 422-7
127.429471,36.44923428,대전광역시 대덕구 신탄진동 143-18
127.4362877,36.45263509,대전광역시 대덕구 신탄진동 22-1
127.4290882,36.44980177,대전광역시 대덕구 신탄진동 733
127.4351812,36.45065531,대전광역시 대덕구 신탄진동 735
127.422343,36.32557815,대전광역시 중구 대흥동 469-5 
127.4231822,36.32736438,대전광역시 중구 대흥동 494-2 
127.4241793,36.31992057,대전광역시 중구 대흥동 330-26
127.4202418,36.32322032,대전광역시 중구 대흥동 520-2
127.422405,36.32260599,대전광역시 중구 대흥동 516-2
127.4264187,36.32831901,대전광역시 중구 은행동 142-3 
127.4268663,36.32877867,대전광역시 중구 은행동 142-8  
127.4272869,36.32892146,대전광역시 중구 은행동 48-1 
127.4283049,36.32933185,대전광역시 중구 은행동 45-13
127.4295547,36.32853944,대전광역시 중구 은행동 65-16 
127.4256779,36.31821474,대전광역시 중구 대흥동 109-12 
127.4245723,36.32008074,대전광역시 중구 대흥동 340-24 
127.4246745,36.3222077,대전광역시 중구 대흥동 320-2 
127.4264074,36.3267648,대전광역시 중구 대흥동 189 
127.4287151,36.32609133,대전광역시 중구 대흥동 134-1 
127.4241216,36.32764555,대전광역시 중구 대흥동 205-1 
127.4295431,36.32194791,대전광역시 중구 대흥동 40-10 
127.4276043,36.32607951,대전광역시 중구 대흥동 156-2 
127.4260408,36.32382365,대전광역시 중구 대흥동 423-4 
127.4250111,36.31701358,대전광역시 중구 대사동 118-14 
127.4250858,36.31745304,대전광역시 중구 대사동 117-11 
127.4232648,36.3237275,대전광역시 중구 대흥동 452-52
127.4224278,36.32363758,대전광역시 중구 대흥동 508-63 
127.4201584,36.32491113,대전광역시 중구 대흥동 500 
127.4213773,36.32547931,대전광역시 중구 대흥동 499-1 
127.4056197,36.33469635,대전광역시 중구 목동 24 
127.4120431,36.33377629,대전광역시 중구 목동 5-14 
127.409752,36.33128399,대전광역시 중구 목동 116-35 
127.4126921,36.33167759,대전광역시 중구 목동 111-12 
127.4101459,36.33599245,대전광역시 중구 목동 10-7 
127.4131378,36.33918062,대전광역시 중구 중촌동 105-11 
127.4129403,36.3386448,대전광역시 중구 중촌동 102-3 
127.4090094,36.34118701,대전광역시 중구 중촌동 10-3 
127.4246544,36.33002098,대전광역시 중구 은행동 126 
127.4278945,36.32965772,대전광역시 중구 은행동 9-12 
127.4270274,36.32927574,대전광역시 중구 은행동 136-11 
127.4264681,36.32913473,대전광역시 중구 은행동 141-16 
127.4276759,36.32947613,대전광역시 중구 은행동 9-39 
127.4250182,36.32862683,대전광역시 중구 선화동 3-3 
127.4246489,36.32841476,대전광역시 중구 선화동 62-5
127.4242721,36.32836466,대전광역시 중구 선화동 63 
127.4238494,36.32811754,대전광역시 중구 선화동 66-2 
127.4209455,36.33313976,대전광역시 중구 선화동 79-1 
127.4228319,36.3279795,대전광역시 중구 선화동 226 
127.4196897,36.33085106,대전광역시 중구 선화동 140-14 
127.4203412,36.32843687,대전광역시 중구 선화동 348-10 
127.4187554,36.32440277,대전광역시 중구 선화동 382-50
127.4167746,36.32385017,대전광역시 중구 선화동 877 
127.4360064,36.31334753,대전광역시 중구 문창동 373-10 
127.4366469,36.3125645,대전광역시 중구 문창동 379-3 
127.4349589,36.3134902,대전광역시 중구 부사동 150-8 
127.4348992,36.31284745,대전광역시 중구 부사동 153-8 
127.4355052,36.31249214,대전광역시 중구 부사동 153-1 
127.4306312,36.31633196,대전광역시 중구 부사동 209-1 
127.4308914,36.31370398,대전광역시 중구 부사동 140-4 
127.4420377,36.30928499,대전광역시 중구 석교동 60-5 
127.4490346,36.30472301,대전광역시 중구 호동 10-5 
127.4547424,36.29928039,대전광역시 중구 옥계동 45-3 
127.4506442,36.3039,대전광역시 중구 호동 26-22 
127.4005362,36.31885059,대전광역시 중구 유천동 186-5 
127.3978293,36.31657274,대전광역시 중구 유천동 215-45 
127.3986153,36.31282536,대전광역시 중구 유천동 271-16 
127.3926745,36.31691325,대전광역시 중구 유천동 306-34 
127.3965662,36.31789654,대전광역시 중구 유천동 210-3 
127.3933478,36.32327132,대전광역시 중구 태평동 395-1 
127.3939678,36.32246698,대전광역시 중구 태평동 386 
127.3906866,36.32059121,대전광역시 중구 태평동 551
127.3881939,36.3169989,대전광역시 중구 태평동 423-20 
127.3952574,36.32562165,대전광역시 중구 태평동 381-16 
127.3969705,36.32346611,대전광역시 중구 태평동 554 
127.397238,36.32668359,대전광역시 중구 태평동 335-14 
127.3988726,36.33181164,대전광역시 중구 태평동 253-1 
127.4146102,36.32299185,대전광역시 중구 용두동 13-4 
127.4109353,36.32422103,대전광역시 중구 용두동 23-6 
127.411168,36.32502531,대전광역시 중구 용두동 25-21 
127.4071147,36.32890167,대전광역시 중구 용두동 99-28 
127.4069911,36.32936116,대전광역시 중구 용두동 100-36 
127.4053026,36.32787598,대전광역시 중구 오류동 187-4 
127.4060973,36.32724935,대전광역시 중구 오류동 187-11 
127.4077718,36.32591348,대전광역시 중구 오류동 175-3 
127.4090697,36.3248806,대전광역시 중구 오류동 175-14 
127.4104259,36.32226093,대전광역시 중구 오류동154-4 
127.4068479,36.32104658,대전광역시 중구 오류동 165-13 
127.40573,36.32091979,대전광역시 중구 오류동 168-8 
127.4038621,36.32843918,대전광역시 중구 오류동 189-32 
127.4046984,36.3221204,대전광역시 중구 오류동 170-1 
127.4029875,36.32984164,대전광역시 중구 오류동 188-24 
127.4066575,36.31999762,대전광역시 중구 문화동 311-3 
127.4098078,36.32107555,대전광역시 중구 문화동 1-13 
127.4070649,36.31341069,대전광역시 중구 문화동 187-1 
127.4093196,36.31149187,대전광역시 중구 문화동 141 
127.4135316,36.32096294,대전광역시 중구 문화동 1-30 
127.4165159,36.31852939,대전광역시 중구 대사동 248-229
127.4049949,36.31432013,대전광역시 중구 문화동 284-3
127.4046123,36.31462831,대전광역시 중구 문화동 284-93
127.4144778,36.32117833,대전광역시 중구 문화동 1-143
127.4147159,36.32238968,대전광역시 중구 문화동 1-6
127.408881,36.31563785,대전광역시 중구 문화동 281-1
127.4094188,36.31719124,대전광역시 중구 문화동 1-253
127.4020262,36.27856725,대전광역시 중구 대사도 642
127.4141074,36.31816479,대전광역시 중구 문화동 1-33
127.3952712,36.30812837,대전광역시 중구 문화동 785
127.3871117,36.30610574,대전광역시 중구 산성동 284-1
127.3786466,36.28663454,대전광역시 중구 안영동 702-2
127.3802644,36.28837114,대전광역시 중구 안영동 683-3
127.3859185,36.3034473,대전광역시 중구 산성동 125-1
127.3864255,36.30328436,대전광역시 중구 산성동 277-20
127.3882418,36.3125584,대전광역시 중구 산성동 759-33
127.3874827,36.31498501,대전광역시 중구 유천동 339-64
127.3752291,36.28236496,대전광역시 중구 안영동 243-3
127.3979104,36.29277325,대전광역시 중구 사정동 138
127.3764507,36.28284045,대전광역시 중구 안영동 280 
126.2556731,33.2212969,제주특별자치도 서귀포시 하모리 814-2
126.2904011,33.20814732,제주특별자치도 서귀포시 상모리 132-1
126.2585936,33.21145736,제주특별자치도 서귀포시 하모리 634-11
126.5951612,33.33962791,제주특별자치도 서귀포시 하모3리 977-2
126.2690668,33.22653504,제주특별자치도 서귀포시 상모리 2650-3
126.2725262,33.2525913,제주특별자치도 서귀포시 보성리1577-1
126.2601578,33.26415525,제주특별자치도 서귀포시 신평리102
126.2461602,33.27834314,제주특별자치도 서귀포시 무릉리132-1
126.233774,33.27380693,제주특별자치도 서귀포시 무릉리568-7
126.2239285,33.28108369,제주특별자치도 서귀포시 무릉리973-1
126.2369724,33.25782027,제주특별자치도 서귀포시 동일리274
126.2251668,33.24671566,제주특별자치도 서귀포시 일과리1509-2
126.2239781,33.24767741,제주특별자치도 서귀포시 일과리1538-6
126.2108259,33.25867562,제주특별자치도 서귀포시 영락리1282-2
126.1918102,33.27814044,제주특별자치도 서귀포시 신도리1408-1
126.1845817,33.28431978,제주특별자치도 서귀포시 신도리2072-13
126.1847199,33.28672614,제주특별자치도 서귀포시 신도리2067-24
126.1864084,33.28751377,제주특별자치도 서귀포시 신도리1920-3
126.1711299,33.27630014,제주특별자치도 서귀포시 신도리3076-2
126.175101,33.28010219,제주특별자치도 서귀포시 신도리2633-4
126.1733076,33.27678756,제주특별자치도 서귀포시 신도리3094-1
126.2350815,33.27454752,제주특별자치도 서귀포시 무릉리630-2
126.2191471,33.26301199,제주특별자치도 서귀포시 영락리279
126.2035137,33.25306513,제주특별자치도 서귀포시 영락리1747-4
126.208683,33.26112334,제주특별자치도 서귀포시 영락리1242-2
126.2630243,33.26803711,제주특별자치도 서귀포시 신평리603-1
126.2596595,33.2657308,제주특별자치도 서귀포시 신평리370-4
126.2279087,33.24282555,제주특별자치도 서귀포시 일과리1467-1
126.2819513,33.24980937,제주특별자치도 서귀포시 안성리 1478-2
126.2253705,33.25599036,제주특별자치도 서귀포시 일과리 산1-8
126.2499859,33.22675832,제주특별자치도 서귀포시 하모리2121-28
126.2593546,33.22997962,제주특별자치도 서귀포시 상모리3675-6
126.2570857,33.21565414,제주특별자치도 서귀포시 하모리566-2
126.260419,33.22114897,제주특별자치도 서귀포시 상모리 4083-1
126.2738283,33.16627013,제주특별자치도 서귀포시 가파리70-6
126.2699065,33.17418676,제주특별자치도 서귀포시 가파리210
126.273017,33.25096444,제주특별자치도 서귀포시 보성리1587-1
126.2237762,33.28216447,제주특별자치도 서귀포시 무릉리943-15
126.2496421,33.22162937,제주특별자치도 서귀포시 하모리1077-1
126.2036842,33.27057747,제주특별자치도 서귀포시 무릉리2865-3
126.1990199,33.27258146,제주특별자치도 서귀포시 무릉리3314-8
126.195593,33.27171703,제주특별자치도 서귀포시 무릉리3473-3
126.1978349,33.26710028,제주특별자치도 서귀포시 대정읍 무릉사장로 12-1
126.2234163,33.24599265,제주특별자치도 서귀포시 일과리1516-3
126.2567479,33.22493452,제주특별자치도 서귀포시 상모대서로20
126.2507401,33.21792971,제주특별자치도 서귀포시 하모리2128-6
126.2834195,33.27915545,제주특별자치도 서귀포시 구억리 788-3
126.2573108,33.22254733,제주특별자치도 서귀포시 상모리3970-2
126.2302158,33.23898271,제주특별자치도 서귀포시 일과리 1303-9
126.2099876,33.26483429,제주특별자치도 서귀포시 영락리1173-1
126.2549128,33.22675189,제주특별자치도 서귀포시 하모리 1403-2
126.2825675,33.2908259,제주특별자치도 서귀포시 보성리 2403
126.2911843,33.29571522,제주특별자치도 서귀포시 구억리 1101
126.2759241,33.28518597,제주특별자치도 서귀포시 보성리 2424
126.2530435,33.21833274,제주특별자치도 서귀포시 하모리 765-6 
126.1999441,33.26262577,제주특별자치도 서귀포시 무릉리3734-4
126.2681515,33.22469466,제주특별자치도 서귀포시 상모리2669-3
126.2318884,33.27692334,제주특별자치도 서귀포시 무릉리 1139-3
126.2478793,33.22390306,제주특별자치도 서귀포시 신영로23
126.2603922,33.22759526,제주특별자치도 서귀포시 상모리3732-6
126.3107624,36.89511497,제주특별자치도 서귀포시 일관리 226
126.2331709,33.243849,제주특별자치도 서귀포시 일과리 930 
126.2850609,33.24750307,제주특별자치도 서귀포시 인성리 122-5 
126.2945327,33.27969442,제주특별자치도 서귀포시 구억리293-1
126.2532234,33.23027792,제주특별자치도 서귀포시 하모리 1331-2
126.2528649,33.22231451,제주특별자치도 서귀포시 하모리 908
126.2774949,33.24597837,제주특별자치도 서귀포시 인성리 373-1
126.2715699,33.16941388,제주특별자치도 서귀포시 가파리
126.2775936,33.24742032,제주특별자치도 서귀포시 인성리 368-5 
126.7135991,33.27869291,제주특별자치도 서귀포시 남원읍 남원리 1310-3
126.6573662,33.27496842,제주특별자치도 서귀포시 남원읍 위미리 2885-5
126.7447298,33.28741969,제주특별자치도 서귀포시 남원읍 태흥리 553-8
126.6378026,33.26202906,제주특별자치도 서귀포시 남원읍 하례리 36-5
126.6255672,33.26379926,제주특별자치도 서귀포시 남원읍 일주동로 8058
126.6298955,33.26897924,제주특별자치도 서귀포시 남원읍 하례리 605-3
126.6078188,33.29333508,제주특별자치도 서귀포시 남원읍 하례돈야로 28
126.6342595,33.28549372,제주특별자치도 서귀포시 남원읍 신례리 855-2
126.7133931,33.32811667,제주특별자치도 서귀포시 남원읍 수망리 313-1
126.7155488,33.27748611,제주특별자치도 서귀포시 남원읍 남원리 1352-1
126.7208449,33.28063351,제주특별자치도 서귀포시 남원읍 남원리 207-10
126.7203644,33.27963895,제주특별자치도 서귀포시 남원읍 남원리 205-18
126.7078743,33.28301367,제주특별자치도 서귀포시 남원읍 남위남성로 10
126.6953569,33.27461869,제주특별자치도 서귀포시 남원읍 남원리 2419-9
126.7240916,33.28032655,제주특별자치도 서귀포시 남원읍 태위로 726
126.6518414,33.27428192,제주특별자치도 서귀포시 남원읍 위미리 4140-5
126.643884,33.26706033,제주특별자치도 서귀포시 남원읍 신례리 26-7
126.6394857,33.26316281,제주특별자치도 서귀포시 남원읍 신례리 74
126.6414652,33.26266516,제주특별자치도 서귀포시 남원읍 신례리 72-19
126.7405663,33.2859125,제주특별자치도 서귀포시 남원읍 태흥리 950-3
126.6292847,33.2830163,제주특별자치도 서귀포시 남원읍 신례리 730-1
126.6913435,33.31118906,제주특별자치도 서귀포시 남원읍 한남리 672-3
126.6792157,33.29196069,제주특별자치도 서귀포시 남원읍 위미리 491-1
126.6586955,33.27102479,제주특별자치도 서귀포시 남원읍 위미해안로 43
126.6641066,33.2800119,제주특별자치도 서귀포시 남원읍 위미리 2061-2
126.6679902,33.27496802,제주특별자치도 서귀포시 남원읍 태위로 194
126.7214321,33.27879804,제주특별자치도 서귀포시 남원읍 남원리 84-2
126.7090902,33.28096494,제주특별자치도 서귀포시 남원읍 남원체육관로 221번길 16
126.7152921,33.28409601,제주특별자치도 서귀포시 남원읍 남원리 1226-2
126.706231,33.27575795,제주특별자치도 서귀포시 남원읍 남원리 1451-4
126.7223836,33.28202359,제주특별자치도 서귀포시 남원읍 남원리 19-6
126.7425072,33.28560205,제주특별자치도 서귀포시 남원읍 태흥리 974-3
126.7126283,33.30940674,제주특별자치도 서귀포시 남원읍 의귀리 1434
126.7002848,33.31303469,제주특별자치도 서귀포시 남원읍 한남리 58
126.6952776,33.31241329,제주특별자치도 서귀포시 남원읍 한신로 17-4
126.7306792,33.28236496,제주특별자치도 서귀포시 남원읍 태흥리 1804-1
126.7337091,33.28580368,제주특별자치도 서귀포시 남원읍 태흥중동로 31
126.7348604,33.28332018,제주특별자치도 서귀포시 남원읍 태위로 834번길 3
126.7114451,33.29419022,제주특별자치도 서귀포시 남원읍 서의로 20
126.7575978,33.28997811,제주특별자치도 서귀포시 남원읍 태흥리 63-6
126.7122502,33.29013199,제주특별자치도 서귀포시 남원읍 남한로 140번길 7
126.6253105,33.29310532,제주특별자치도 서귀포시 남원읍 신례천로 124
126.7154862,33.31490082,제주특별자치도 서귀포시 남원읍 의귀리 1628-2
126.6233845,33.29485474,제주특별자치도 서귀포시 남원읍 신례리 1641-5
126.7195117,33.30205817,제주특별자치도 서귀포시 남원읍 의귀리 964-1
126.7133066,33.31033808,제주특별자치도 서귀포시 남원읍 한신로 207
126.7492377,33.32079671,제주특별자치도 서귀포시 남원읍 신흥리 1263-2
126.9098443,33.4494399,제주특별자치도 서귀포시 성산읍 고성 중앙로 65-1
126.91157,33.44813491,제주특별자치도 서귀포시 성산읍 고성리 1090-22
126.8499897,33.34201074,제주특별자치도 서귀포시 성산읍 신천리 437 
126.8552124,33.3397846,제주특별자치도 서귀포시 성산읍 신천리 352-7 
126.8406809,33.36264172,제주특별자치도 서귀포시 성산읍 신풍리 505-2 
126.8471486,33.37263934,제주특별자치도 서귀포시 성산읍 삼달리 684-4
126.8427514,33.37089497,제주특별자치도 서귀포시 성산읍 삼달리 1220-5 
126.8210553,33.40606182,제주특별자치도 서귀포시 성산읍 난산리 2970-1 
126.8550377,33.4352111,제주특별자치도 서귀포시 성산읍 수산리 2790
126.9053452,33.44564139,제주특별자치도 서귀포시 성산읍 서성일로 1186-6
126.8687595,33.36953657,제주특별자치도 서귀포시 성산읍 삼달리 29-2
126.8993635,33.47395702,제주특별자치도 서귀포시 성산읍 시흥리 763-3
126.9041752,33.47386441,제주특별자치도 서귀포시 성산읍 시흥리 109-3
126.9004027,33.47546833,제주특별자치도 서귀포시 성산읍 시흥리 980-36 
126.8959331,33.47317759,제주특별자치도 서귀포시 성산읍 시흥리 575-4
126.8997939,33.47219901,제주특별자치도 서귀포시 성산읍 시흥리 700-1
126.8546319,33.34682565,제주특별자치도 서귀포시 성산읍 신천리 556-2
126.914373,33.453421,제주특별자치도 서귀포시 성산읍 오조리 61-26
126.8715288,33.40075638,제주특별자치도 서귀포시 성산읍 난산리 1108
126.8708946,33.39850201,제주특별자치도 서귀포시 성산읍 난산리 1122
126.8684613,33.39962489,제주특별자치도 서귀포시 성산읍 난산리 1029-4 
126.9114342,33.44467632,제주특별자치도 서귀포시 성산읍 고성리 1040-1
126.8629795,33.34917272,제주특별자치도 서귀포시 성산읍 신천리 7-14
126.8537025,33.34318865,제주특별자치도 서귀포시 성산읍 신천리 302-4
126.846237,33.37557986,제주특별자치도 서귀포시 성산읍 삼달리 766-1
126.8434354,33.37280782,제주특별자치도 서귀포시 성산읍 삼달리 1240-3
126.8505563,33.37235223,제주특별자치도 서귀포시 성산읍 삼달리 453-2
126.9140761,33.45864656,제주특별자치도 서귀포시 성산읍 오조리 870
126.9170351,33.46034369,제주특별자치도 서귀포시 성산읍 오조리 90-23
126.9147867,33.46294103,제주특별자치도 서귀포시 성산읍 오조리 709
126.8673332,33.36227689,제주특별자치도 서귀포시 성산읍 신풍리 17-3
126.908175,33.46382351,제주특별자치도 서귀포시 성산읍 오조리 1252-1
126.9425485,33.45839817,제주특별자치도 서귀포시 성산읍 오일시장 1길 41-1
126.9095287,33.45135054,제주특별자치도 서귀포시 성산읍 산성효자로 26
126.88255,33.44672392,제주특별자치도 서귀포시 성산읍 수산리 1199
126.9082991,33.47573881,제주특별자치도 서귀포시 성산읍 시흥리 12-72
126.9000023,33.40728999,제주특별자치도 서귀포시 성산읍 온평리 872-2
126.9306636,33.47066506,제주특별자치도 서귀포시 성산읍 성산리 347-15
126.9228318,33.47002044,제주특별자치도 서귀포시 성산읍 오조리 3-9
126.9323314,33.46467795,제주특별자치도 서귀포시 성산읍 성산리 234-29
126.862879,33.44192939,제주특별자치도 서귀포시 성산읍 수산리 2433-1
126.8762101,33.37585564,제주특별자치도 서귀포시 성산읍 신산리 1130-12
126.8277431,33.36378042,제주특별자치도 서귀포시 성산읍신풍리 1384
126.9094168,33.47867234,제주특별자치도 서귀포시 성산읍 시흥리 11-13
126.911354,33.44792764,제주특별자치도 서귀포시 성산읍 고성리 1065-4
126.932389,33.47255752,제주특별자치도 서귀포시 성산읍 성산리 347-9
126.9108914,33.46283522,제주특별자치도 서귀포시 성산읍 오조리 675-1
126.9135052,33.45226128,제주특별자치도 서귀포시 성산읍 고성리 1187-2
126.9163903,33.4508418,제주특별자치도 서귀포시 성산읍 고성리 302-4
126.9221557,33.43755815,제주특별자치도 서귀포시 성산읍 고성리 224-16
126.9210825,33.43892483,제주특별자치도 서귀포시 성산읍 고성리 224-12
126.9159647,33.43429529,제주특별자치도 서귀포시 성산읍 고성리 588-7
126.8819399,33.38353402,제주특별자치도 서귀포시 성산읍 신산리 582-2
126.8363165,33.36522395,제주특별자치도 서귀포시 성산읍 신풍리 681
126.9113996,33.45237948,제주특별자치도 서귀포시 성산읍 고성리 1152-8
126.9159853,33.42876248,제주특별자치도 서귀포시 성산읍 고성리 612
126.9208493,33.46918555,제주특별자치도 서귀포시 성산읍 오조리 9-4
126.8987882,33.47569162,제주특별자치도 서귀포시 성산읍 시흥리 980-27
126.8965161,33.44519654,제주특별자치도 서귀포시 성산읍 고성리 2470-2
126.8799318,33.44238625,제주특별자치도 서귀포시 성산읍 수산리 1080
126.3645834,33.27352407,제주특별자치도 서귀포시 상창리 594-16
126.311313,33.25428501,제주특별자치도 서귀포시 덕수리 792-3
126.3140966,33.27822448,제주특별자치도 서귀포시 덕수리 1474
126.3565796,33.26032169,제주특별자치도 서귀포시 감산리 126-2
126.36718,33.23490129,제주특별자치도 서귀포시 창천리 777-5
126.3471599,33.26440987,제주특별자치도 서귀포시 상창리 2449-2
126.3493795,33.25718695,제주특별자치도 서귀포시 감산리 1509-1
126.3516407,33.25600315,제주특별자치도 서귀포시 감산리 439-3
126.3303936,33.28521719,제주특별자치도 서귀포시 서광리 74-1
126.3279433,33.2852705,제주특별자치도 서귀포시 서광리 212-6
126.3683379,33.23576876,제주특별자치도 서귀포시 창천리 772-1
126.3001229,33.2815874,제주특별자치도 서귀포시 서광리 2470
126.3366781,33.2442514,제주특별자치도 서귀포시 화순리 353-6
126.357581,33.25854894,제주특별자치도 서귀포시 감천로 196
126.3015287,33.23300484,제주특별자치도 서귀포시 사계리 1838-2
126.3546939,33.26250557,제주특별자치도 서귀포시 감산로44번길 38 
126.3232129,33.25041624,제주특별자치도 서귀포시 사계리 3596-3
126.2931449,33.22924511,제주특별자치도 서귀포시 사계리 2449
126.3026126,33.28511056,제주특별자치도 서귀포시 서광리 2165-5
126.8321517,33.32610866,제주특별자치도 서귀포시 표선면 표선리 699-7
126.8367317,33.32552955,제주특별자치도 서귀포시 표선면 표선리 882-1
126.8312176,33.32332541,제주특별자치도 서귀포시 표선면 표선리 775
126.8323074,33.32871529,제주특별자치도 서귀포시 표선면 표선리 515-4
126.802733,33.38427801,제주특별자치도 서귀포시 표선면 성읍리 987-1
126.82365,33.32773911,제주특별자치도 서귀포시 표선면 표선리 2078
126.7719957,33.41316048,제주특별자치도 서귀포시 표선면 성읍리 2901
126.7742658,33.41122911,제주특별자치도 서귀포시 표선면 성읍리 2891
126.8294188,33.321285,제주특별자치도 서귀포시 표선면 표선리 1005-6
126.8290538,33.3232954,제주특별자치도 서귀포시 표선면 표선리 763-1
126.7985549,33.33088751,제주특별자치도 서귀포시 표선면 세화리 1080
126.7922181,33.32340859,제주특별자치도 서귀포시 표선면 세화리 1768-7
126.7904871,33.32057435,제주특별자치도 서귀포시 표선면 세화리 2410-4
126.7895256,33.31836389,제주특별자치도 서귀포시 표선면 토산리 154-4
126.7831044,33.30942339,제주특별자치도 서귀포시 표선면 토산리 332-12
126.8041741,33.33319136,제주특별자치도 서귀포시 표선면 돈오름로 55
126.7771596,33.30950738,제주특별자치도 서귀포시 표선면 토산리 521-1
126.8032298,33.3042196,제주특별자치도 서귀포시 표선면 세화리 209-3
126.8062332,33.30442752,제주특별자치도 서귀포시 표선면 세화리 200-1
126.8004209,33.30717236,제주특별자치도 서귀포시 표선면 세화리 1521-4
126.8451225,33.32494249,제주특별자치도 서귀포시 표선면 표선리 40-10
126.8383098,33.32348426,제주특별자치도 서귀포시 표선면 표선리 40-66
126.7768174,33.35716883,제주특별자치도 서귀포시 표선면 가시리 1311-1
126.8429597,33.33731676,제주특별자치도 서귀포시 표선면 하천리 134-1
126.7966435,33.38434419,제주특별자치도 서귀포시 표선면 성읍리 1009
126.7963192,33.38927822,제주특별자치도 서귀포시 표선면 성읍리 1468-1
126.809471,33.30513005,제주특별자치도 서귀포시 표선면 세화리 168-2
126.7656548,33.32579756,제주특별자치도 서귀포시 표선면 토산리 1377-1
126.7836123,33.306531,제주특별자치도 서귀포시 표선면 토산리 425-4
126.7766268,33.30739589,제주특별자치도 서귀포시 표선면 토산리 456-2
126.7739071,33.34898668,제주특별자치도 서귀포시 표선면 가시리 2105-2
126.7653945,33.36117973,제주특별자치도 서귀포시 표선면 가시리 2528-3
126.8128064,33.30796892,제주특별자치도 서귀포시 표선면 표선리 2919-2
126.7656534,33.35184072,제주특별자치도 서귀포시 표선면 가시리 2318-2
126.7702469,33.33020908,제주특별자치도 서귀포시 표선면 토산리 933
126.8370005,33.35181074,제주특별자치도 서귀포시 표선면 하천리 668-3
126.7716077,33.33075089,제주특별자치도 서귀포시 표선면 토산리 856-4
126.8102576,33.35323693,제주특별자치도 서귀포시 표선면 하천리 2176-1
126.8449864,33.34201898,제주특별자치도 서귀포시 표선면 하천리 329-5
126.7734649,33.34522098,제주특별자치도 서귀포시 표선면 가시리 2168-2
126.8223358,33.32838478,제주특별자치도 서귀포시 표선면 표선리 2074-2
126.8339696,33.32180632,제주특별자치도 서귀포시 표선면 표선리 959-1
126.8045583,33.39772523,제주특별자치도 서귀포시 표선면 성읍리 468-5
126.8252719,33.32908707,제주특별자치도 서귀포시 표선면 표선리 2954
126.8315351,33.33099995,제주특별자치도 서귀포시 표선면 표선중앙로 31
126.8292852,33.3069154,제주특별자치도 서귀포시 표선면 민속해안로 292
126.7797313,33.30882535,제주특별자치도 서귀포시 표선면 토산리 537-3
126.8422222,33.32205194,제주특별자치도 서귀포시 표선면 민속해안로 631-34
126.6758325,33.40142877,제주특별자치도 서귀포시 표선면 남조로 1487-73
126.5629326,33.24329727,제주특별자치도 서귀포시 서귀동 634-2
126.56278,33.2398528,제주특별자치도 서귀포시 서귀동 673-5
126.5656893,33.24456406,제주특별자치도 서귀포시 서귀동 558-15
126.5672804,33.24328732,제주특별자치도 서귀포시 서귀동 44-4
126.606112,33.23943636,제주특별자치도 서귀포시 보목동 566
126.6045862,33.2426155,제주특별자치도 서귀포시 보목동 420
126.5986966,33.24268183,제주특별자치도 서귀포시 보목동 660
126.6008717,33.2440339,제주특별자치도 서귀포시 보목동 869-1
126.5642491,33.24074124,제주특별자치도 서귀포시 서귀동 778-3
126.5613738,33.24154132,제주특별자치도 서귀포시 서귀동 652-7
126.5660606,33.24230482,제주특별자치도 서귀포시 서귀동 738-2
126.5971481,33.24327453,제주특별자치도 서귀포시 보목동 1308-13
126.5997545,33.24067605,제주특별자치도 서귀포시 보목동 695-3
126.5994714,33.24149584,제주특별자치도 서귀포시 보목동 1637
126.5653974,33.24678567,제주특별자치도 서귀포시 서귀동 412-14
126.563252,33.24645174,제주특별자치도 서귀포시 서귀동 422-2
126.562352,33.24503306,제주특별자치도 서귀포시 서귀동 463-1
126.5614708,33.24557352,제주특별자치도 서귀포시 서귀동 449
126.5675572,33.24681893,제주특별자치도 서귀포시 서귀동 172
126.569708,33.24593427,제주특별자치도 서귀포시 서귀동 961-31
126.5634187,33.24567225,제주특별자치도 서귀포시 서귀동 485-10
126.5685381,33.24658006,제주특별자치도 서귀포시 서귀동 127-4
126.5653659,33.2478199,제주특별자치도 서귀포시 서귀동 403-3
126.5657,33.25337981,제주특별자치도 서귀포시 서귀동 261-5
126.5670531,33.25148459,제주특별자치도 서귀포시 동홍동 453-1
126.5695549,33.24937515,제주특별자치도 서귀포시 중앙동 250-6
126.5611807,33.24840452,제주특별자치도 서귀포시 서귀동 294-7
126.5577592,33.25221263,제주특별자치도 서귀포시 서귀동 330-10
126.5572621,33.25080818,제주특별자치도 서귀포시 서귀동 332-12
126.5588628,33.24933253,제주특별자치도 서귀포시 서귀동 321-10
126.5542144,33.24919398,제주특별자치도 서귀포시 서홍동 477-4
126.5551623,33.24416592,제주특별자치도 서귀포시 서홍동 581-3
126.5545583,33.2419038,제주특별자치도 서귀포시 서홍동 744-59
126.5584194,33.25122246,제주특별자치도 서귀포시 서귀동 304-4
126.6168469,33.26386527,제주특별자치도 서귀포시 신효동 125-3
126.612431,33.26390174,제주특별자치도 서귀포시 신효동 820-4
126.6112805,33.26196963,제주특별자치도 서귀포시 신효동 798
126.6139828,33.26609444,제주특별자치도 서귀포시 신효동 690-9
126.6209453,33.26636331,제주특별자치도 서귀포시 하효동 11-1
126.617545,33.26115727,제주특별자치도 서귀포시 하효동 646-3
126.6208539,33.26155658,제주특별자치도 서귀포시 하효동 255
126.6221019,33.25867995,제주특별자치도 서귀포시 하효동 537-3
126.6225336,33.25188853,제주특별자치도 서귀포시 하효동 996-1
126.6234137,33.25987743,제주특별자치도 서귀포시 하효동 429
126.6172404,33.25241261,제주특별자치도 서귀포시 하효동 1068
126.6177457,33.25763416,제주특별자치도 서귀포시 하효동 910
126.6178412,33.25951887,제주특별자치도 서귀포시 하효동 625-2
126.617376,33.2669144,제주특별자치도 서귀포시 신효동 189-3
126.6100502,33.26341631,제주특별자치도 서귀포시 신효동 774
126.617015,33.26382942,제주특별자치도 서귀포시 하효동 137
126.5860756,33.25765947,제주특별자치도 서귀포시 토평동1046-1
126.5907765,33.27422526,제주특별자치도 서귀포시 토평동1615-10
126.5868395,33.27264512,제주특별자치도 서귀포시 토평동2087-8
126.5969256,33.27315444,제주특별자치도 서귀포시 상효동 941-7
126.6075991,33.28007212,제주특별자치도 서귀포시 상효동453-2
126.5901282,33.270488,제주특별자치도 서귀포시 토평동1342-4
126.5895341,33.27309191,제주특별자치도 서귀포시 토평동1541-3
126.5868113,33.27429831,제주특별자치도 서귀포시 토평동2069
126.59459,33.29226223,제주특별자치도 서귀포시 상효동 1290-10
126.5758771,33.30241369,제주특별자치도 서귀포시 상효동2295-4
126.5811283,33.2925304,제주특별자치도 서귀포시 토평동3273-1
126.5993113,33.27408956,제주특별자치도 서귀포시 상효동654-19
126.5887788,33.28124918,제주특별자치도 서귀포시 토평동1702-1
126.5845566,33.30029908,제주특별자치도 서귀포시 상효동 1460
126.6008574,33.30027983,제주특별자치도 서귀포시 상효동 1127-2
126.5980359,33.26777068,제주특별자치도 서귀포시 상효동828-8
126.5812783,33.26213715,제주특별자치도 서귀포시 516로97번길 13
126.5870504,33.26862467,제주특별자치도 서귀포시 토평동 2235-3
126.5872284,33.27197727,제주특별자치도 서귀포시 토평중로18번길 10-4
126.5811599,33.28463811,제주특별자치도 서귀포시 토평동 2895
126.5853754,33.3001941,제주특별자치도 서귀포시 상효동 1459
126.5634331,33.26491673,제주특별자치도 서귀포시 동홍동 1687-1
126.5670442,33.26625584,제주특별자치도 서귀포시 동홍동 1041-8
126.570071,33.26422124,제주특별자치도 서귀포시 동홍동 1209-1
126.5671696,33.26209689,제주특별자치도 서귀포시 동홍동 1242-5
126.561084,33.25902375,제주특별자치도 서귀포시 동홍동 1380-8
126.5637773,33.25430717,제주특별자치도 서귀포시 동홍동 1504-3
126.5663981,33.25631986,제주특별자치도 서귀포시 동홍동 529-8
126.5699402,33.25146896,제주특별자치도 서귀포시 동홍동 426-7
126.5703727,33.25386278,제주특별자치도 서귀포시 동홍동 646-1
126.57423,33.25264545,제주특별자치도 서귀포시 동홍동 151
126.5723814,33.26983729,제주특별자치도 서귀포시 동홍동 823
126.5693286,33.25780431,제주특별자치도 서귀포시 동홍동 577-7
126.574473,33.25906052,제주특별자치도 서귀포시 동홍동 651
126.5767024,33.25885536,제주특별자치도 서귀포시 동홍동 663
126.5723462,33.25557815,제주특별자치도 서귀포시 동홍동 470-1
126.5761244,33.25080866,제주특별자치도 서귀포시 동홍동 205-2
126.5785174,33.25767005,제주특별자치도 서귀포시 토평동 3265-8
126.5756898,33.25633332,제주특별자치도 서귀포시 동홍동 420-1
126.5623364,33.26056014,제주특별자치도 서귀포시 동홍동 1385-8
126.5755062,33.25420703,제주특별자치도 서귀포시 동홍동 130
126.5706524,33.24950821,제주특별자치도 서귀포시 동홍동 392-1
126.5734814,33.26714258,제주특별자치도 서귀포시 토평서로11번길 142
126.5535466,33.26540651,제주특별자치도 서귀포시 서홍동 1966-1
126.5589942,33.26577688,제주특별자치도 서귀포시 서홍동 238
126.5559346,33.26323316,제주특별자치도 서귀포시 서홍동 276-8
126.5559834,33.26042639,제주특별자치도 서귀포시 서홍동 299-1
126.5579438,33.26050608,제주특별자치도 서귀포시 서홍동 305-4
126.5581222,33.25747488,제주특별자치도 서귀포시 서홍동 382-2
126.5553128,33.25325503,제주특별자치도 서귀포시 서홍동 447-3
126.5574333,33.25327303,제주특별자치도 서귀포시 서홍동 451
126.560233,33.25587654,제주특별자치도 서귀포시 서홍동 397-24
126.5561838,33.25896365,제주특별자치도 서귀포시 서홍동 345-1
126.5563448,33.26555507,제주특별자치도 서귀포시 서홍동 216-3
126.5071919,33.23645031,제주특별자치도 서귀포시 강정동475-2
126.5168225,33.24061966,제주특별자치도 서귀포시 법환동451-2
126.5297687,33.2452662,제주특별자치도 서귀포시 호근동 1528
126.5319148,33.23996539,제주특별자치도 서귀포시 호근동1619
126.5106199,33.25155026,제주특별자치도 서귀포시 법환동745-4
126.5095974,33.25396597,제주특별자치도 서귀포시 법환동 737
126.5138565,33.25131477,제주특별자치도 서귀포시 서호남로 11
126.5116387,33.25726824,제주특별자치도 서귀포시 서호동1453
126.5129048,33.25958648,제주특별자치도 서귀포시 서호동 1149-7
126.5086814,33.26332211,제주특별자치도 서귀포시 서호동 1423
126.5303027,33.26183735,제주특별자치도 서귀포시 호근동1141-5
126.5213112,33.25725236,제주특별자치도 서귀포시 서호동794-4
126.5269396,33.25746942,제주특별자치도 서귀포시 호근동1786-2
126.5317818,33.25716858,제주특별자치도 서귀포시 호근동1371-3
126.5106757,33.25893265,제주특별자치도 서귀포시 서호동1209-1
126.521771,33.25408402,제주특별자치도 서귀포시 서호동925-5
126.526162,33.25578606,제주특별자치도 서귀포시 호근동1772
126.524309,33.25685109,제주특별자치도 서귀포시 호근동1838-7
126.5068241,33.24441419,제주특별자치도 서귀포시 월드컵로 59-5
126.5222389,33.25979534,제주특별자치도 서귀포시 서호동 645-1
126.5155756,33.23751621,제주특별자치도 서귀포시 법환동 284-1
126.5142264,33.23919514,제주특별자치도 서귀포시 법환동 398
126.5273195,33.26032738,제주특별자치도 서귀포시 호근동 1883-1
126.5401154,33.26232856,제주특별자치도 서귀포시 호근동850-10
126.5243625,33.25141711,제주특별자치도 서귀포시 서호동271-1
126.5296702,33.24416129,제주특별자치도 서귀포시 호근동 1570-1
126.4820519,33.23753094,제주특별자치도 서귀포시 강정동 2940-1
126.4823217,33.2348336,제주특별자치도 서귀포시 강정동 2857-4
126.4753343,33.23353775,제주특별자치도 서귀포시 강정동 4590
126.4948225,33.25056665,제주특별자치도 서귀포시 강정동 2095
126.4918913,33.25958624,제주특별자치도 서귀포시 강정동 1926-1
126.4609023,33.2460029,제주특별자치도 서귀포시 월평동 419
126.4592598,33.24486574,제주특별자치도 서귀포시 월평동 471-1
126.4591753,33.24336914,제주특별자치도 서귀포시 월평동 513-1
126.4761485,33.24960506,제주특별자치도 서귀포시 도순동 313-1
126.4755519,33.25074674,제주특별자치도 서귀포시 도순동 279-6
126.4740089,33.25295289,제주특별자치도 서귀포시 도순동 903
126.469558,33.25314455,제주특별자치도 서귀포시 도순동 758-3
126.4751353,33.25227021,제주특별자치도 서귀포시 도순동 243-1
126.5082777,33.25244329,제주특별자치도 서귀포시 강정동 174-1
126.5085873,33.25869077,제주특별자치도 서귀포시 강정동 129-7
126.5076059,33.2580088,제주특별자치도 서귀포시 강정동 134-18
126.5089739,33.25936096,제주특별자치도 서귀포시 강정동 125-2
126.4737591,33.25244183,제주특별자치도 서귀포시 도순동 820-4
126.5057264,33.25630139,제주특별자치도 서귀포시 강정동 146
126.4831514,33.2505312,제주특별자치도 서귀포시 강정동 4047-3
126.4764834,33.22933768,제주특별자치도 서귀포시 강정동 4692
126.4252532,33.25761814,제주특별자치도 서귀포시 중문동 1452
126.4238492,33.25702523,제주특별자치도 서귀포시 중문동 1543
126.4243858,33.25533565,제주특별자치도 서귀포시 중문동 1551-1
126.4274287,33.25706626,제주특별자치도 서귀포시 중문동 1349-2
126.4269539,33.25473918,제주특별자치도 서귀포시 중문동 1684-2
126.4280475,33.25435733,제주특별자치도 서귀포시 중문동 1675-1
126.4230323,33.25148044,제주특별자치도 서귀포시 중문동 2116-4
126.4265753,33.24987038,제주특별자치도 서귀포시 중문동 2036-2
126.4306302,33.25010642,제주특별자치도 서귀포시 중문동 2439-1
126.4327151,33.24679818,제주특별자치도 서귀포시 대포동 778
126.4320646,33.24289375,제주특별자치도 서귀포시 대포동 1598-4
126.4314377,33.240714,제주특별자치도 서귀포시 대포동 1900-3
126.4346676,33.24233224,제주특별자치도 서귀포시 대포동 2026-1
126.4403454,33.26324525,제주특별자치도 서귀포시 회수동 845-4
126.447219,33.26273788,제주특별자치도 서귀포시 회수동 355-5
126.4554501,33.25884514,제주특별자치도 서귀포시 하원동 1202-1
126.4577314,33.25738676,제주특별자치도 서귀포시 하원동 1276
126.4584931,33.2552254,제주특별자치도 서귀포시 하원동 1332-2
126.4600609,33.25737345,제주특별자치도 서귀포시 하원동 493
126.433147,33.24647482,제주특별자치도 서귀포시 대포복개로 95
126.4395996,33.25440965,제주특별자치도 서귀포시 회수동 658-1
126.4318825,33.25483246,제주특별자치도 서귀포시 중문동 1767-3
126.4246071,33.24930377,제주특별자치도 서귀포시 중문동 2367-1
126.4387129,33.25438835,제주특별자치도 서귀포시 회수동 656
126.4534333,33.24326872,제주특별자치도 서귀포시 하원동 1710-1
126.3785905,33.26584333,제주특별자치도 서귀포시 상예동 4625
126.3915753,33.26473667,제주특별자치도 서귀포시 상예동 1718
126.3940125,33.25025036,제주특별자치도 서귀포시 상예동 1442-2
126.3823826,33.24172985,제주특별자치도 서귀포시 하예동 999-1
126.3727304,33.23297871,제주특별자치도 서귀포시 하예동 1774-1
126.4131189,33.26134132,제주특별자치도 서귀포시 색달동 1892-7
126.3743545,33.2714095,제주특별자치도 서귀포시 상예동 4563
126.389587,33.25341192,제주특별자치도 서귀포시 상예동 1526-1
126.3904856,33.2487316,제주특별자치도 서귀포시 상예동 1279
126.3881547,33.24524935,제주특별자치도 서귀포시 하예동 266
126.3825295,33.24115457,제주특별자치도 서귀포시 하예동 997
126.3885262,33.24372416,제주특별자치도 서귀포시 하예동 293-2
126.3985568,33.25358407,제주특별자치도 서귀포시 상예동 531
126.4181069,33.30956285,제주특별자치도 서귀포시 색달동 산8
126.3914284,33.24603749,제주특별자치도 서귀포시 상예동 1152-3
126.3880478,33.24693881,제주특별자치도 서귀포시 상예동 3172-1
126.3732443,33.23628379,제주특별자치도 서귀포시 하예동 1560
126.3704199,33.23508371,제주특별자치도 서귀포시 하예동 1831-3
126.2784411,33.27550437,제주특별자치도 서귀포시 보성리 173-1
126.2416003,33.22861702,제주특별자치도 서귀포시 동일리 2829-3
126.2475382,33.22057297,제주특별자치도 서귀포시 하모리 1089-40
126.2677854,33.11396043,제주특별자치도 서귀포시 마라로 127
126.2632163,33.22586575,제주특별자치도 서귀포시 상모리 3209-1
126.718476,33.27740902,제주특별자치도 서귀포시 남원읍 남원리 128-9
126.7670307,33.30416724,제주특별자치도 서귀포시 남원읍 신흥리 2481-1
126.6874896,33.27538229,제주특별자치도 서귀포시 남원읍 태위로 377
126.9156075,33.44698223,제주특별자치도 서귀포시 성산읍 고성리 336-2
126.9028376,33.40134728,제주특별자치도 서귀포시 성산읍 온평리 1107-6
126.9294502,33.46748078,제주특별자치도 서귀포시 성산읍 성산리 378
126.8436618,33.37578458,제주특별자치도 서귀포시 성산읍 삼달리 1152-1
126.3305908,33.25043685,제주특별자치도 서귀포시 화순리 1989
126.3533975,33.25793068,제주특별자치도 서귀포시 감산리 346
126.2992764,33.23064614,제주특별자치도 서귀포시 사계리 2249-2
126.8300405,33.32280204,제주특별자치도 서귀포시 표선면 표선동서로 203-1
126.7993044,33.39456145,제주특별자치도 서귀포시 표선면 서성일로27번길 16
126.8016672,33.39289262,제주특별자치도 서귀포시 표선면 서성일로10번길 9
126.7970459,33.32620363,제주특별자치도 서귀포시 표선면 세화리 1326-4
126.8039084,33.3087116,제주특별자치도 서귀포시 표선면 세화리 273-2
126.5634835,33.25015801,제주특별자치도 서귀포시 중앙동 277-1
126.5593813,33.25145767,제주특별자치도 서귀포시 서귀동 305-1
126.6092041,33.26633297,제주특별자치도 서귀포시 신효동 593-5
126.5714882,33.26666428,제주특별자치도 서귀포시 동홍동 2174
126.5583908,33.2552617,제주특별자치도 서귀포시 서홍동 397-33
126.526837,33.25404074,제주특별자치도 서귀포시 호근동 1729-2
126.507975,33.24024434,제주특별자치도 서귀포시 법환동 1063
126.510139,33.25643712,제주특별자치도 서귀포시 법환동 731-2
126.5043125,33.25369789,제주특별자치도 서귀포시 강정동 201
126.484352,33.25708643,제주특별자치도 서귀포시 강정동 3928-1
126.4762106,33.23776728,제주특별자치도 서귀포시 강정동 4359
126.4240442,33.25004175,제주특별자치도 서귀포시 중문동2129-3
126.2624301,33.41608698,제주특별자치도 제주시 한림리 1328-62
126.2637117,33.41086492,제주특별자치도 제주시 한림리 1531-4
126.2640479,33.41226639,제주특별자치도 제주시 한림리 1449-2
126.2896239,33.43439597,제주특별자치도 제주시 귀덕리 4174
126.2710073,33.41483904,제주특별자치도 제주시 한림리 579
126.2713681,33.41283103,제주특별자치도 제주시 한림리 1582
126.2692064,33.40577183,제주특별자치도 제주시 동명리 1540-1
126.2958986,33.3616459,제주특별자치도 제주시 금악리 2234-5
126.2655443,33.41773571,제주특별자치도 제주시 한림리 1309
126.2300546,33.38917216,제주특별자치도 제주시 금능리 1401
126.2947624,33.44248251,제주특별자치도 제주시 귀덕리 1195-1
126.289041,33.42823979,제주특별자치도 제주시 귀덕리 2453-3
126.2620288,33.34660022,제주특별자치도 제주시 월림리 3256
126.2793114,33.44114245,제주특별자치도 제주시 귀덕리 4070
126.2981245,33.4213621,제주특별자치도 제주시 귀덕리 228-3
126.2963006,33.41917705,제주특별자치도 제주시 귀덕리 2074
126.2638669,33.42818134,제주특별자치도 제주시 수원리 960-6
126.2662728,33.40894994,제주특별자치도 제주시 한림리 915-9
126.2637621,33.42108844,제주특별자치도 제주시 한수리 885-1
126.2773455,33.35195454,제주특별자치도 제주시 상명리 211-12
126.2626242,33.42288733,제주특별자치도 제주시 한수리 920-14
126.2708683,33.41088684,제주특별자치도 제주시 한림리 680-1
126.2807552,33.42272924,제주특별자치도 제주시 대림리 766-4
126.2776588,33.42448132,제주특별자치도 제주시 대림리 1468-1
126.2938893,33.40758369,제주특별자치도 제주시 상대리 2720-5
126.2602567,33.40693319,제주특별자치도 제주시 동명리 2259
126.2834694,33.3856173,제주특별자치도 제주시 동명리 175-4
126.2636519,33.40279821,제주특별자치도 제주시 동명리 2062-4
126.281412,33.37462108,제주특별자치도 제주시 명월리 382-2
126.2675509,33.38653647,제주특별자치도 제주시 명월리 1777-5
126.2632489,33.41578674,제주특별자치도 제주시 한림리 1328-39
126.2962238,33.35711904,제주특별자치도 제주시 금악리 1911-3
126.2928768,33.42799282,제주특별자치도 제주시 귀덕리 1893-1
126.2736379,33.36287089,제주특별자치도 제주시 상명리 2361
126.2821769,33.4217392,제주특별자치도 제주시 대림리 578-7
126.2980808,33.35785108,제주특별자치도 제주시 금악리 2048-2
126.2553139,33.40302038,제주특별자치도 제주시 옹포리 127-24
126.2568519,33.40589077,제주특별자치도 제주시 옹포리 319-2
126.2506206,33.38511922,제주특별자치도 제주시 협재리 2872
126.2615651,33.40968172,제주특별자치도 제주시 한림리 1525
126.2409263,33.39472329,제주특별자치도 제주시 협재리 2447-45
126.2395907,33.39354001,제주특별자치도 제주시 협재리 2447
126.2298478,33.38624652,제주특별자치도 제주시 금능리 1270-4
126.2288816,33.38895667,제주특별자치도 제주시 금능리 1494-7
126.2156894,33.3758697,제주특별자치도 제주시 월령리 424-1
126.2782323,33.4213866,제주특별자치도 제주시 대림리 456-2
126.2625266,33.41253663,제주특별자치도 제주시 한림리 1388
126.2983677,33.43666231,제주특별자치도 제주시 귀덕리 735-1
126.2629232,33.39810471,제주특별자치도 제주시 명월리 2124
126.2971094,33.41681986,제주특별자치도 제주시 귀덕리 98
126.2633219,33.4190465,제주특별자치도 제주시 대림리 2019-13
126.2835712,33.44242295,제주특별자치도 제주시 귀덕리 3127-2
126.2707322,33.42740674,제주특별자치도 제주시 수원리 277-16
126.2477128,33.39503151,제주특별자치도 제주시 협재리 1942-3
126.2449043,33.39780563,제주특별자치도 제주시 협재리 1468-1
126.2524977,33.40117647,제주특별자치도 제주시 옹포리 618-3
126.2913966,33.41802377,제주특별자치도 제주시 귀덕리 2255-6
126.2946425,33.44556639,제주특별자치도 제주시 귀덕리 976-8
126.2973988,33.43905949,제주특별자치도 제주시 귀덕리 710-4
126.2634023,33.42270568,제주특별자치도 제주시 한수리 920-12
126.2550539,33.41279543,제주특별자치도 제주시 한림리 1377-41
126.2603713,33.39637723,제주특별자치도 제주시 명월리 2089-5
126.2748384,33.41986848,제주특별자치도 제주시 대림리 1705-4
126.2752459,33.43703655,제주특별자치도 제주시 귀덕리 3882
126.2722877,33.43590328,제주특별자치도 제주시 수원리 230-4
126.2981666,33.36083755,제주특별자치도 제주시 금악리 2031-16
126.2630194,33.42009491,제주특별자치도 제주시 한수리 879-14  
126.2236741,33.38587651,제주특별자치도 제주시 금능리 1634-2
126.2516886,33.40427473,제주특별자치도 제주시 옹포리 500-9
126.2163531,33.37850066,제주특별자치도 제주시 월령리 317-1
126.2639055,33.40844931,제주특별자치도 제주시 동명리 1601-2
126.2963085,33.43371906,제주특별자치도 제주시 귀덕리 1645-3
126.2777273,33.44165358,제주특별자치도 제주시 귀덕리 4129-4
126.2816743,33.41324589,제주특별자치도 제주시 한림리 65-5
126.2655638,33.39730058,제주특별자치도 제주시 동명리 1324-2
126.2143887,33.37629205,제주특별자치도 제주시 월령리 376-1
126.2675615,33.41962132,제주특별자치도 제주시 대림리 1882-4
126.26707,33.4261558,제주특별자치도 제주시 수원리 713-8
126.2683265,33.41737555,제주특별자치도 제주시 대림리 1776-1
126.2701434,33.40256594,제주특별자치도 제주시 동명리 663
126.26439,33.42179304,제주특별자치도 제주시 한수리 845-2
126.2852171,33.42430993,제주특별자치도 제주시 대림리 676-1
126.2653845,33.42001538,제주특별자치도 제주시 대림리 1901-10
126.2643295,33.41430382,제주특별자치도 제주시 한림리 1421-2
126.2646156,33.41436928,제주특별자치도 제주시 한림리 1213-2
126.264348,33.41166575,제주특별자치도 제주시 한림리 1582-7
126.2775637,33.40873529,제주특별자치도 제주시 한림리 175-10
126.2608861,33.40633278,제주특별자치도 제주시 동명리 1832
126.3215573,33.34323423,제주특별자치도 제주시 금악리 109-7
126.2708453,33.35933682,제주특별자치도 제주시 상명리 1111-2
126.268686,33.36339623,제주특별자치도 제주시 상명리 1758-1
126.2547255,33.40507594,제주특별자치도 제주시 옹포리 363
126.2436208,33.39665093,제주특별자치도 제주시 협재리 1894
126.2427881,33.39547109,제주특별자치도 제주시 협재리 1782-1
126.2421557,33.35816692,제주특별자치도 제주시 금능리 407-15
126.242826,33.35935708,제주특별자치도 제주시 금능리 407-7
126.2984144,33.35949635,제주특별자치도 제주시 금악리 2033-8
126.280012,33.42704501,제주특별자치도 제주시 대림리 1298-1
126.2669371,33.41477178,제주특별자치도 제주시 한림리 1232-1
126.2686489,33.40941259,제주특별자치도 제주시 한림리 887-2
126.405597,33.48221409,제주특별자치도 제주시 하귀2리 1436-20
126.4347048,33.4525442,제주특별자치도 제주시 광령중길 85
126.4256441,33.43478097,제주특별자치도 제주시 고성리 133-2
126.301533,33.43912457,제주특별자치도 제주시 금성2길64
126.3145532,33.41494084,제주특별자치도 제주시 봉성리 3080-9
126.4840053,33.41943224,제주특별자치도 제주시 어음1리 3643-2
126.3296433,33.43979212,제주특별자치도 제주시 납읍리 1753-4
126.4087433,33.48628532,제주특별자치도 제주시 하귀12길 22
126.4015452,33.48106284,제주특별자치도 제주시 하귀미수동길 30
126.3675567,33.47043017,제주특별자치도 제주시 신엄8길10
126.3769559,33.47648113,제주특별자치도 제주시 구엄리 1103-1
126.3684647,33.46196596,제주특별자치도 제주시 신엄리1728-1
126.4399806,33.46072842,제주특별자치도 제주시 광령리 1276-2
126.4366085,33.46075214,제주특별자치도 제주시 광성로 277
126.4294973,33.44911231,제주특별자치도 제주시 광령리 3067-1
126.4234282,33.46408817,제주특별자치도 제주시 광령자종길1
126.4151291,33.45802824,제주특별자치도 제주시 고성6길 4
126.4256261,33.4349211,제주특별자치도 제주시 고성리 133-9
126.402466,33.44116902,제주특별자치도 제주시 유수암리1898-3
126.3885304,33.45076477,제주특별자치도 제주시 장전리453-2
126.3791737,33.44130841,제주특별자치도 제주시 장전리 1638-3
126.3841049,33.4687696,제주특별자치도 제주시 엄수로103
126.3933251,33.46704395,제주특별자치도 제주시 하소로163
126.3981312,33.46050737,제주특별자치도 제주시 예원로103
126.3897622,33.46875393,제주특별자치도 제주시 엄수로165
126.4089357,33.47278455,제주특별자치도 제주시 상귀리 528-4
126.3773882,33.48381695,제주특별자치도 제주시 구엄4길48
126.415784,33.4890463,제주특별자치도 제주시 하귀1리 316-2
126.3282955,33.43994069,제주특별자치도 제주시 애납로 161
126.4089291,33.48750786,제주특별자치도 제주시 하귀12길 36
126.4100856,33.48702082,제주특별자치도 제주시 하귀10길 17
126.3918157,33.47684586,제주특별자치도 제주시 하귀2리 2988-2
126.4047,33.48128017,제주특별자치도 제주시 하귀로 72
126.4005687,33.47950314,제주특별자치도 제주시 하귀2리 1926-7
126.4032811,33.47889669,제주특별자치도 제주시 하귀로23길 17-1
126.3925335,33.4867418,제주특별자치도 제주시 하귀2리 2729-1
126.3665055,33.47590955,제주특별자치도 제주시 신엄리 1005-3
126.3680224,33.47356284,제주특별자치도 제주시 신엄9길 22-2 
126.3338011,33.43813492,제주특별자치도 제주시 납읍리 1622-4
126.3622673,33.47393855,제주특별자치도 제주시 신엄안3길46
126.355804,33.47653517,제주특별자치도 제주시 신엄리 2871
126.4052379,33.42327209,제주특별자치도 제주시 유수암리 1042-16
126.3279019,33.43680376,제주특별자치도 제주시 납읍리 2420-2
126.4159624,33.48627849,제주특별자치도 제주시 하귀1리 123-10
126.3756053,33.4751899,제주특별자치도 제주시 구엄길9
126.3124814,33.42130495,제주특별자치도 제주시 봉성리 3816-4
126.4144345,33.45904699,제주특별자치도 제주시 고성3길 10
126.3434583,33.44982808,제주특별자치도 제주시 상가중길43
126.3472096,33.45139298,제주특별자치도 제주시 상가리 1249-1
126.3107828,33.41386353,제주특별자치도 제주시 봉성리 4188-1
126.4190045,33.48941017,제주특별자치도 제주시 일주서로 7219-1
126.4184859,33.48685009,제주특별자치도 제주시 하귀1리146-1
126.4167541,33.48433204,제주특별자치도 제주시 하귀1리 156-5
126.3941051,33.46960113,제주특별자치도 제주시 하소로136
126.3459908,33.44962651,제주특별자치도 제주시 상가리 1196-4
126.438359,33.46191365,제주특별자치도 제주시 광령7길 13
126.4138788,33.48128446,제주특별자치도 제주시 하귀1리 238-4
126.3176084,33.41776625,제주특별자치도 제주시 봉성리 3248-2
126.4161768,33.4870968,제주특별자치도 제주시 하귀5길 2-1
126.3780397,33.47480287,제주특별자치도 제주시 구엄리 900-3
126.4401217,33.45799532,제주특별자치도 제주시 광령8길 33
126.3421711,33.45139811,제주특별자치도 제주시 상가리 1794-3
126.3129486,33.42549984,제주특별자치도 제주시 봉성리 3375-1
126.3741436,33.47287058,제주특별자치도 제주시 신엄리755-4
126.3954522,33.48358274,제주특별자치도 제주시 하귀2리 2615-6
126.3896938,33.48824103,제주특별자치도 제주시 하귀2리 2799-2
126.4113265,33.4736852,제주특별자치도 제주시 상귀리 257-4
126.3910232,33.45129964,제주특별자치도 제주시 장전리386-1
126.4097751,33.46533369,제주특별자치도 제주시 고성리 1449-1
126.3084579,33.44529116,제주특별자치도 제주시 곽지리 1996-1
126.4393995,33.45463378,제주특별자치도 제주시 광령리 산 24-3
126.3677191,33.45675797,제주특별자치도 제주시 신엄리1807-1
126.3317844,33.43846395,제주특별자치도 제주시 납읍리 1609-5
126.4006085,33.44313564,제주특별자치도 제주시 유수암리 2017-3
126.4376554,33.46547438,제주특별자치도 제주시 광령리 1417-1
126.433447,33.44624959,제주특별자치도 제주시 광령리 2607-6
126.4357717,33.46214517,제주특별자치도 제주시 광령5길 18
126.4021984,33.46421479,제주특별자치도 제주시 상귀리 1279-2
126.3794387,33.47639029,제주특별자치도 제주시 구엄리 873-12
126.3994452,33.43122928,제주특별자치도 제주시 유수암리 1574-4
126.4001418,33.47321937,제주특별자치도 제주시 하귀2리 2122-4
126.4190726,33.46962748,제주특별자치도 제주시 하광로208
126.4035039,33.47519861,제주특별자치도 제주시 하귀로23길 58
126.3244377,33.46562604,제주특별자치도 제주시 애월리 415-2
126.411455,33.48910099,제주특별자치도 제주시 하귀1리 437-4
126.4075775,33.48311543,제주특별자치도 제주시 하귀1리 1367-2
126.3967696,33.47307349,제주특별자치도 제주시 학원동길4
126.3794562,33.43466834,제주특별자치도 제주시 소길리 793-3
126.4448744,33.47030292,제주특별자치도 제주시 사라길 133 
126.4097003,33.47594252,제주특별자치도 제주시 상귀리 304
126.395651,33.47979238,제주특별자치도 제주시 하귀2리 2444-1
126.3492342,33.46673528,제주특별자치도 제주시 고내리 216-1
126.4334044,33.44475792,제주특별자치도 제주시 광령리 2602-1
126.4045257,33.48331693,제주특별자치도 제주시 일주서로 7066
126.4206358,33.48451265,제주특별자치도 제주시 하귀1리 53-5
126.3746033,33.47793611,제주특별자치도 제주시 중구엄길 39
126.3112622,33.41720273,제주특별자치도 제주시 봉성리 4096-4
126.3004461,33.44475058,제주특별자치도 제주시 금성리 599-4
126.3800797,33.47057737,제주특별자치도 제주시 수산리 2004-1
126.3181952,33.4603822,제주특별자치도 제주시 일주서로 6233
126.300436,33.44218835,제주특별자치도 제주시 금성2길24
126.3077442,33.42969875,제주특별자치도 제주시 봉성리 3605-3
126.3106326,33.41915847,제주특별자치도 제주시 봉성로3길 17
126.3317824,33.43743402,제주특별자치도 제주시 납읍리 1595-2
126.3727814,33.47266148,제주특별자치도 제주시 중용길6
126.3670288,33.4621864,제주특별자치도 제주시 신엄리1724-2
126.3665115,33.46025385,제주특별자치도 제주시 용흥2길39
126.3703518,33.454526,제주특별자치도 제주시 신엄리1913-3
126.4057883,33.48482541,제주특별자치도 제주시 하귀1리 1603-1
126.4064564,33.47657078,제주특별자치도 제주시 답동3길 18
126.41223,33.47490302,제주특별자치도 제주시 상귀리 241-2
126.4186627,33.4460345,제주특별자치도 제주시 광상로 115
126.4309049,33.42845976,제주특별자치도 제주시 고성남길 101
126.4343792,33.43089324,제주특별자치도 제주시 광령리 2807-3
126.4361829,33.45892104,제주특별자치도 제주시 광령4길  28
126.4307324,33.46263168,제주특별자치도 제주시 중산간서로 6566-1
126.4332179,33.43234913,제주특별자치도 제주시 광령리 2812
126.4325873,33.45137467,제주특별자치도 제주시 광령리 2498-1
126.4215524,33.46707747,제주특별자치도 제주시 광령자종길54
126.3319662,33.46298951,제주특별자치도 제주시 일주서로6349
126.7599305,33.55701059,제주특별자치도 제주시 김녕리 497-4
126.7720103,33.53647139,제주특별자치도 제주시 만장굴길 122
126.7691994,33.52790795,제주특별자치도 제주시 만장굴길 182
126.7552613,33.55783816,제주특별자치도 제주시 김녕리 1223-20
126.7553524,33.55388554,제주특별자치도 제주시 김녕로18길 19-1
126.7563709,33.55638246,제주특별자치도 제주시 김녕리 1200-4
126.7534054,33.556689,제주특별자치도 제주시 김녕로17길 15
126.7531009,33.5556127,제주특별자치도 제주시 김녕로 141
126.7525672,33.55669665,제주특별자치도 제주시 김녕리1466-1
126.7540203,33.55306737,제주특별자치도 제주시 김녕리 1145-100
126.7503007,33.55250784,제주특별자치도 제주시 김녕로 118-20
126.7507631,33.55454214,제주특별자치도 제주시 김녕로 118
126.7500228,33.55559743,제주특별자치도 제주시 김녕로 11길 14-1
126.7729228,33.56278711,제주특별자치도 제주시 해맞이해안로 200
126.7484778,33.55464338,제주특별자치도 제주시 김녕로9길 7
126.7480601,33.55436458,제주특별자치도 제주시 김녕로93
126.7487925,33.55157982,제주특별자치도 제주시 일주동로 2045
126.7488685,33.55299071,제주특별자치도 제주시 김녕로 8길 14
126.7469132,33.55626185,제주특별자치도 제주시 김녕항3길 7
126.7473516,33.55713078,제주특별자치도 제주시 김녕리 3722
126.7470869,33.55751316,제주특별자치도 제주시 김녕항3길 12-29
126.7444053,33.55779788,제주특별자치도 제주시 김녕항1길 32
126.740232,33.55805076,제주특별자치도 제주시 김녕항1길 50-13
126.7434742,33.5555882,제주특별자치도 제주시 김녕리 3959
126.7424319,33.54851923,제주특별자치도 제주시 김녕리 3100
126.7372584,33.5582456,제주특별자치도 제주시 구좌해안로 229-16
126.7352074,33.55549429,제주특별자치도 제주시 김녕리 4402
126.7293698,33.55637486,제주특별자치도 제주시 일주동로 1853
126.7315302,33.54757196,제주특별자치도 제주시 동김길 150
126.7314752,33.54609684,제주특별자치도 제주시 김녕리 5552
126.7617598,33.55534465,제주특별자치도 제주시 김녕리 497-6
126.770951,33.50500572,제주특별자치도 제주시 월덕로 522
126.7715438,33.50219174,제주특별자치도 제주시 덕평로 365
126.7509095,33.49642601,제주특별자치도 제주시 동백로 458
126.7495698,33.48833882,제주특별자치도 제주시 덕평로 77
126.7474698,33.48479049,제주특별자치도 제주시 덕평로 31
126.7463214,33.48359096,제주특별자치도 제주시 덕천리 1181
126.7525968,33.48212247,제주특별자치도 제주시 중산간동로 1921
126.7068658,33.5535201,제주특별자치도 제주시 동복로 5
126.7128293,33.55109374,제주특별자치도 제주시 동복남4길 3
126.7142506,33.55369238,제주특별자치도 제주시 동복로 75-8
126.7148766,33.55285726,제주특별자치도 제주시 동복리1379
126.7190676,33.5551276,제주특별자치도 제주시 구좌해안로 32
126.7168725,33.55217013,제주특별자치도 제주시 일주동로 1724
126.7098419,33.55326188,제주특별자치도 제주시 동복로 34
126.7092852,33.54963367,제주특별자치도 제주시 동복남2길 19-2
126.70675,33.55152845,제주특별자치도 제주시 일주동로 1626
126.7068741,33.54781332,제주특별자치도 제주시 조천우회로988
126.7206649,33.55228397,제주특별자치도 제주시 동복리 766-1
126.8629137,33.52336059,제주특별자치도 제주시 상도리 471-40
126.8659164,33.51412591,제주특별자치도 제주시 상도로 3
126.8794053,33.50554685,제주특별자치도 제주시 세종로 201
126.8682734,33.51658339,제주특별자치도 제주시 상하도길 34
126.8674339,33.51634911,제주특별자치도 제주시 상하도길 46
126.8645602,33.52068461,제주특별자치도 제주시 상도리 471-18
126.8638839,33.51579085,제주특별자치도 제주시 세종로 36
126.8525291,33.52251959,제주특별자치도 제주시 세화리 1561-6
126.8528989,33.52139471,제주특별자치도 제주시 일주동로 3132
126.8557184,33.51955826,제주특별자치도 제주시 충렬로 14
126.8570182,33.51733488,제주특별자치도 제주시 세화남길 25
126.8601516,33.51653034,제주특별자치도 제주시 세송로 17
126.8608884,33.51462203,제주특별자치도 제주시 세화합전1길 19
126.8627703,33.52082697,제주특별자치도 제주시 구좌로 116
126.8620649,33.52475271,제주특별자치도 제주시 세화리 1381-2
126.8612138,33.52281567,제주특별자치도 제주시 세화11길 22
126.8603536,33.52053834,제주특별자치도 제주시 세화 14길 6
126.8593553,33.51974399,제주특별자치도 제주시 세화 12길 12-1
126.8585179,33.52048826,제주특별자치도 제주시 세화 10길 5-1
126.8573282,33.52164776,제주특별자치도 제주시 세화 8길 10
126.8590567,33.52290031,제주특별자치도 제주시 세화 7길 12
126.8553247,33.52255066,제주특별자치도 제주시 세화4길 12
126.8596452,33.52461219,제주특별자치도 제주시 세화리 1477-3
126.8545017,33.5246174,제주특별자치도 제주시 세화1길 12
126.8566135,33.52423547,제주특별자치도 제주시 세화리 1491-3
126.855957,33.52504781,제주특별자치도 제주시 세화3길 18
126.8576849,33.52558759,제주특별자치도 제주시 세화리1500-6
126.8560328,33.52699296,제주특별자치도 제주시 세평항로 46-9
126.7359363,33.43644794,제주특별자치도 제주시 송당리 2602-1
126.7679749,33.4512472,제주특별자치도 제주시 비자림로 1575
126.7729854,33.46633127,제주특별자치도 제주시 비자림로 1760
126.775308,33.47026263,제주특별자치도 제주시 송당서1길 4
126.7720151,33.47079695,제주특별자치도 제주시 중산간동로 2142
126.7764952,33.47265356,제주특별자치도 제주시 송당리 1230-5
126.7785804,33.47145254,제주특별자치도 제주시 송당리 1262-4
126.7869577,33.4781626,제주특별자치도 제주시 송당리 2774
126.7822279,33.47157698,제주특별자치도 제주시 중산간동로 2240
126.7870286,33.47021336,제주특별자치도 제주시 송당리 1445-3
126.7849803,33.46826178,제주특별자치도 제주시 송당리 1485
126.7974587,33.55170996,제주특별자치도 제주시 월정7길 1
126.7960826,33.55249635,제주특별자치도 제주시 월정리 231-2
126.7951215,33.55589399,제주특별자치도 제주시 월정3길 57
126.794467,33.55708384,제주특별자치도 제주시 월정리 555-2
126.7779482,33.56324044,제주특별자치도 제주시 월정서로 169
126.782416,33.55135172,제주특별자치도 제주시 월정리 1321-13
126.7918535,33.55216958,제주특별자치도 제주시 월정3길 8
126.7908111,33.55637461,제주특별자치도 제주시 월정리 797-22
126.896509,33.4927595,제주특별자치도 제주시 종달로 59
126.9126431,33.50366823,제주특별자치도 제주시 해맞이해안로 2196
126.9034503,33.50971594,제주특별자치도 제주시 종달리 1396-1
126.8509814,33.5238575,제주특별자치도 제주시 평대리 127-3
126.8499134,33.52625072,제주특별자치도 제주시 평대9길 15
126.8513122,33.52620461,제주특별자치도 제주시 평대리 65-12
126.8527284,33.52512902,제주특별자치도 제주시 평대13길 26
126.8543173,33.52702823,제주특별자치도 제주시 평대리 3348-2
126.8528513,33.52760774,제주특별자치도 제주시 평대9길 54
126.8521801,33.5292842,제주특별자치도 제주시 평대리 4-7
126.8504188,33.53215674,제주특별자치도 제주시 평대리 4-20
126.8445758,33.53261958,제주특별자치도 제주시 평대7길 57
126.8439153,33.53032065,제주특별자치도 제주시 평대 7길 24
126.8425628,33.5284048,제주특별자치도 제주시 일주동로 3007
126.8400274,33.52981637,제주특별자치도 제주시 평대 5길 7
126.8421761,33.5325347,제주특별자치도 제주시 평대5길 43
126.8408173,33.53295289,제주특별자치도 제주시 평대리 1994-6
126.8400588,33.53507545,제주특별자치도 제주시 평대리 2026-16
126.8382926,33.53691438,제주특별자치도 제주시 대수길 26-1
126.8370583,33.53062011,제주특별자치도 제주시 일주동로 2948
126.8487423,33.52301229,제주특별자치도 제주시 평대12길 15
126.8466122,33.52147916,제주특별자치도 제주시 평대리 282-3
126.8527455,33.52428462,제주특별자치도 제주시 세평항로 7-1
126.8136631,33.49085319,제주특별자치도 제주시 평대리 2947-7
126.8635895,33.52519024,제주특별자치도 제주시 하도리 3200-19
126.8655002,33.52337319,제주특별자치도 제주시 하도리 3359-64
126.8668802,33.52227641,제주특별자치도 제주시 하도리 3359-60
126.8677213,33.5214824,제주특별자치도 제주시 하도리 3312-8
126.8679952,33.51828772,제주특별자치도 제주시 일주동로 3274
126.8685937,33.51816676,제주특별자치도 제주시 일주동로 3280
126.8778434,33.51703202,제주특별자치도 제주시 일주동로 3378
126.8793017,33.52043181,제주특별자치도 제주시 하도 3길 29
126.8805486,33.52149666,제주특별자치도 제주시 하도서길 36
126.8814491,33.52575278,제주특별자치도 제주시 하도리 1972
126.8812505,33.52819973,제주특별자치도 제주시 하도리 1901-4
126.8833376,33.52553597,제주특별자치도 제주시 하도리 1792
126.8831702,33.5226753,제주특별자치도 제주시 하도리 1636
126.8895484,33.5157767,제주특별자치도 제주시 하도리 730-1
126.8869022,33.51433741,제주특별자치도 제주시 하도리 1130-2
126.9041166,33.52011172,제주특별자치도 제주시 해맞이해안로 1897-27
126.9000713,33.5165299,제주특별자치도 제주시 하도리 35-4
126.9004403,33.51496382,제주특별자치도 제주시 하도리 43-1
126.8931852,33.50967943,제주특별자치도 제주시 하도리 947-37
126.8881355,33.50870757,제주특별자치도 제주시 하도 13길 6
126.8308447,33.5427225,제주특별자치도 제주시 한동리 1358-7
126.8362052,33.53934866,제주특별자치도 제주시 한동리 8
126.8297535,33.53809667,제주특별자치도 제주시 한동리 1180-4
126.8277281,33.53621296,제주특별자치도 제주시 한동리 1052
126.8262803,33.53406761,제주특별자치도 제주시 한동리 906-1
126.8233236,33.53480522,제주특별자치도 제주시 한동로 64
126.8199464,33.53312184,제주특별자치도 제주시 한동리 2004-1
126.8247282,33.53700879,제주특별자치도 제주시 한동리 1113
126.8268629,33.53922487,제주특별자치도 제주시 한동북1길 2
126.8332735,33.53998404,제주특별자치도 제주시 한동리 10-101
126.8257119,33.55828942,제주특별자치도 제주시 행원리 80-3
126.8180475,33.5595523,제주특별자치도 제주시 행원리 21
126.8147816,33.55971816,제주특별자치도 제주시 해맞이해안로 680-6
126.8179874,33.556959,제주특별자치도 제주시 해맞이해안로 680-50
126.8122833,33.55749054,제주특별자치도 제주시 행원리 575-21
126.8152618,33.55453017,제주특별자치도 제주시 행원리 542-9
126.8094613,33.55494552,제주특별자치도 제주시 행원로 9길 28
126.8082667,33.55454994,제주특별자치도 제주시 행원로7길 18-21
126.8005334,33.55458869,제주특별자치도 제주시 행원리 1537-26
126.8056047,33.55681124,제주특별자치도 제주시 해맞이해안로 571
126.8067714,33.55479628,제주특별자치도 제주시 행원로 7길 12
126.8077289,33.55301699,제주특별자치도 제주시 행원로 120
126.8056804,33.54903433,제주특별자치도 제주시 행원리 1262-12
126.7954093,33.53553903,제주특별자치도 제주시 행원용사촌길 14
126.7870035,33.52796996,제주특별자치도 제주시 덕행로 262-17
126.7803981,33.52445458,제주특별자치도 제주시 행원리 3258
126.7881583,33.52092348,제주특별자치도 제주시 덕행로 335
126.7794639,33.51326873,제주특별자치도 제주시 덕행로 450-4
126.8121423,33.54347433,제주특별자치도 제주시 일주동로 2670
126.8048285,33.54829941,제주특별자치도 제주시 행원로2길 55
126.6187944,33.53485013,제주특별자치도 제주시 신촌3길 18
126.6173289,33.53625354,제주특별자치도 제주시 신촌북1길 27
126.6162796,33.53728809,제주특별자치도 제주시 신촌리 2284-5
126.6186901,33.53750445,제주특별자치도 제주시 신촌북3길 4
126.619583,33.53766521,제주특별자치도 제주시 신촌북2길 31-2
126.623162,33.53787893,제주특별자치도 제주시 신촌9길 40-1
126.6344578,33.53849612,제주특별자치도 제주시 조천7길 19-12
126.6382402,33.53800958,제주특별자치도 제주시 조천11길24
126.6399827,33.53864519,제주특별자치도 제주시 신북로 265
126.6368019,33.54182307,제주특별자치도 제주시 조천리 2908
126.6355691,33.54099553,제주특별자치도 제주시 조천북1길 11-13
126.6396778,33.5369508,제주특별자치도 제주시 조천14길 6
126.6934459,33.5503748,제주특별자치도 제주시 북촌11길 39
126.6447761,33.5295588,제주특별자치도 제주시 남조로 3020
126.6668751,33.53973656,제주특별자치도 제주시 함덕서4길 62
126.6348312,33.49314791,제주특별자치도 제주시 와흘로 119
126.654266,33.475163,제주특별자치도 제주시 와흘리 58
126.652865,33.49945629,제주특별자치도 제주시 대흘리 2341
126.6650917,33.54213945,제주특별자치도 제주시 신북로 515
126.6713211,33.51343923,제주특별자치도 제주시 곱은달길 25
126.6761753,33.51270389,제주특별자치도 제주시 함와로 312
126.6612752,33.54635494,제주특별자치도 제주시 조함해안로 441
126.6740521,33.54427964,제주특별자치도 제주시 조함해안로 585
126.6633187,33.54387603,제주특별자치도 제주시 조함해안로 468
126.665175,33.54166425,제주특별자치도 제주시 신북로 520
126.6731394,33.53366009,제주특별자치도 제주시 함덕남12길 29
126.6624619,33.53471574,제주특별자치도 제주시 함덕남2길 28
126.6548711,33.54128995,제주특별자치도 제주시 함덕2길 36
126.6681333,33.54021628,제주특별자치도 제주시 함덕16길 15-13
126.6253129,33.53611177,제주특별자치도 제주시 신촌11길 7
126.6623637,33.54473597,제주특별자치도 제주시 함덕리 1024-3
126.6755047,33.53514717,제주특별자치도 제주시 함와로 56
126.6133804,33.53790506,제주특별자치도 제주시 신촌북3길 62
126.6232673,33.53638357,제주특별자치도 제주시 신촌9길 22
126.6844697,33.54793943,제주특별자치도 제주시 북촌1길43
126.6953532,33.55001634,제주특별자치도 제주시 북촌11길 20
126.6985039,33.54753728,제주특별자치도 제주시 북촌12길 21-1
126.695412,33.5483166,제주특별자치도 제주시 일주동로 1511
126.6367367,33.53933729,제주특별자치도 제주시 조천7길 44
126.7012966,33.5112262,제주특별자치도 제주시 선흘리 2541-3
126.6212723,33.53563888,제주특별자치도 제주시 신촌7길 13
126.7128333,33.45781606,제주특별자치도 제주시 선화길 22
126.7031266,33.45887602,제주특별자치도 제주시 선흘리 1946-1
126.6739088,33.53896519,제주특별자치도 제주시 함덕22길 11-4
126.700744,33.46303074,제주특별자치도 제주시 우진길 34
126.6992363,33.48589297,제주특별자치도 제주시 선교로 198
126.6380953,33.53565456,제주특별자치도 제주시 조천10길 14
126.6181772,33.52689767,제주특별자치도 제주시 신촌남1길 41
126.6393185,33.46949562,제주특별자치도 제주시 와흘전2길 53
126.6745249,33.43179625,제주특별자치도 제주시 교래3길 98
126.6395366,33.53591487,제주특별자치도 제주시 조천12길 22
126.6700746,33.53947733,제주특별자치도 제주시 함덕리 951-2
126.6997523,33.48584923,제주특별자치도 제주시 선흘리 2092-1
126.6160388,33.52247086,제주특별자치도 제주시 신와로 66
126.6360981,33.53363162,제주특별자치도 제주시 조와로 17-5
126.6379388,33.53297703,제주특별자치도 제주시 일주동로 906
126.6757561,33.53983811,제주특별자치도 제주시 함덕리 4154
126.6759945,33.53340295,제주특별자치도 제주시 함덕남14길 2
126.7061651,33.45857735,제주특별자치도 제주시 선진길 42
126.6354947,33.5183725,제주특별자치도 제주시 신조로 152
126.6584376,33.54087004,제주특별자치도 제주시 함대로 35
126.6650669,33.53863306,제주특별자치도 제주시 함덕12길 39
126.6220282,33.53497014,제주특별자치도 제주시 신북로 77
126.6755137,33.54065464,제주특별자치도 제주시 함덕27길 4-6
126.6636399,33.54029758,제주특별자치도 제주시 함덕8길 35
126.6634189,33.53892516,제주특별자치도 제주시 함덕8길 49
126.6922934,33.5482714,제주특별자치도 제주시 북촌5길 12
126.6923478,33.54980394,제주특별자치도 제주시 북촌북길 58-3
126.6959887,33.55110611,제주특별자치도 제주시 북촌13길 23
126.6905426,33.54817545,제주특별자치도 제주시 북촌북길 17-1
126.6661752,33.54062926,제주특별자치도 제주시 함덕 16길 25
126.6487505,33.5163787,제주특별자치도 제주시 남조로3길 91
126.6368736,33.53687835,제주특별자치도 제주시 조천9길 10
126.6322074,33.53620871,제주특별자치도 제주시 조천1길 19
126.622139,33.53659321,제주특별자치도 제주시 신촌7길 30
126.6205282,33.53799103,제주특별자치도 제주시 신촌북2길 38-14
126.6187394,33.52003355,제주특별자치도 제주시 신와로 101
126.6218186,33.51742064,제주특별자치도 제주시 신조로 20
126.6733418,33.54075398,제주특별자치도 제주시 함덕로 9
126.6779858,33.46782,제주특별자치도 제주시 미래로 242
126.6197237,33.53620745,제주특별자치도 제주시 신촌북2길 12
126.6174554,33.53520028,제주특별자치도 제주시 신촌북1길 16
126.6480286,33.52082689,제주특별자치도 제주시 남조로3길 41
126.6624433,33.53845976,제주특별자치도 제주시 함덕서4길 11
126.6698838,33.53801155,제주특별자치도 제주시 함덕18길 32-1
126.6669316,33.43835559,제주특별자치도 제주시 남조로 2023
126.657143,33.42594086,제주특별자치도 제주시 비자림로422-2
126.6625869,33.47268774,제주특별자치도 제주시 대흘남길 31
126.6504201,33.49951514,제주특별자치도 제주시 중산간동로 601
126.6586795,33.499417,제주특별자치도 제주시 중산간동로 677
126.6616545,33.50056683,제주특별자치도 제주시 곱은달서길 165
126.6710243,33.49269399,제주특별자치도 제주시 곱은달남길 214
126.6696373,33.49491247,제주특별자치도 제주시 대흘9길 23
126.6790464,33.51609164,제주특별자치도 제주시 함와로 267-5
126.6932971,33.54924144,제주특별자치도 제주시 북촌리 1270
126.7016606,33.55134124,제주특별자치도 제주시 일주동로 1574
126.7050799,33.55179391,제주특별자치도 제주시 일주동로 1616-7
126.7015556,33.53787483,제주특별자치도 제주시 북흘로 135
126.6860472,33.52709282,제주특별자치도 제주시 북선로 144
126.7041901,33.51725002,제주특별자치도 제주시 북흘로 376-9
126.7147521,33.45691944,제주특별자치도 제주시 선교로 569-36
126.6151332,33.53757379,제주특별자치도 제주시 신촌북3길 43
126.615077,33.53621708,제주특별자치도 제주시 신촌서5길 103
126.6160366,33.53604806,제주특별자치도 제주시 신촌서5길 92
126.6159504,33.53486485,제주특별자치도 제주시 신촌서5길 72-1
126.616364,33.53264683,제주특별자치도 제주시 신북로 31
126.6190407,33.53465797,제주특별자치도 제주시 신촌3길 16-3
126.6241436,33.53745746,제주특별자치도 제주시 신촌11길 26-14
126.6255204,33.51857874,제주특별자치도 제주시 신조로 56
126.6232696,33.5356846,제주특별자치도 제주시 신북로 93
126.6204994,33.53405287,제주특별자치도 제주시 신북로 61
126.6195802,33.53289747,제주특별자치도 제주시 신촌4길 2
126.6191545,33.53179861,제주특별자치도 제주시 신촌2길 14
126.6440111,33.55343067,제주특별자치도 제주시 조함해안로 217-1
126.6759165,33.49428137,제주특별자치도 제주시 와산서1길 34
126.6593528,33.46146713,제주특별자치도 제주시 와흘리 산 13-39
126.6204465,33.50038595,제주특별자치도 제주시 종인내길 69
126.6468279,33.47412483,제주특별자치도 제주시 와흘로 363-22
126.6383614,33.47560856,제주특별자치도 제주시 번영로 941
126.6405732,33.46974333,제주특별자치도 제주시 와흘전2길 51-13
126.6544276,33.45962908,제주특별자치도 제주시 와흘리 산38
126.6342567,33.53482391,제주특별자치도 제주시 신북로 194
126.6400494,33.53089582,제주특별자치도 제주시 조천남4길 41
126.6354061,33.53559523,제주특별자치도 제주시 조천5길 1
126.6345519,33.53600297,제주특별자치도 제주시 조천3길 27
126.6312518,33.53571497,제주특별자치도 제주시 조천1길 5
126.631688,33.53315324,제주특별자치도 제주시 조천2길 19
126.6326433,33.5346187,제주특별자치도 제주시 조천4길 6
126.6378761,33.53691798,제주특별자치도 제주시 신북로 237
126.6405623,33.51864226,제주특별자치도 제주시 신조로 203
126.6365022,33.54071902,제주특별자치도 제주시 조함해안로 39
126.6385584,33.53986975,제주특별자치도 제주시 조천북2길 14-1
126.6352191,33.53740796,제주특별자치도 제주시 조천7길 11
126.6483371,33.54207945,제주특별자치도 제주시 신북로353-12
126.6733864,33.53698767,제주특별자치도 제주시 일주동로 1234
126.6549902,33.54648808,제주특별자치도 제주시 함덕3길 41
126.6640246,33.54172864,제주특별자치도 제주시 함덕10길 6
126.673528,33.53477205,제주특별자치도 제주시 함덕남14길 32
126.6669204,33.53824644,제주특별자치도 제주시 함덕20길 42
126.1997587,33.36288273,제주특별자치도 제주시 판포리 2984-2 
126.2069312,33.36158802,제주특별자치도 제주시 판포리 1986-4 
126.1957338,33.36030477,제주특별자치도 제주시 금등리 549-1
126.1857205,33.35288047,제주특별자치도 제주시 두모리  2962-1
126.1967306,33.33565819,제주특별자치도 제주시 두모리 1402 
126.1953742,33.33706784,제주특별자치도 제주시 두모리 1502 
126.1977298,33.33358744,제주특별자치도 제주시 두모리 1270-8 
126.2274209,33.32634794,제주특별자치도 제주시 낙천리 1927 
126.1829202,33.34778642,제주특별자치도 제주시 신창리 431 
126.2285875,33.33728572,제주특별자치도 제주시 조수리 378
126.2641432,33.33837142,제주특별자치도 제주시 저지리 2114-24 
126.2567301,33.33315639,제주특별자치도 제주시 저지리 1783-2 
126.2703923,33.31964749,제주특별자치도 제주시 저지리 3040
126.1654153,33.3092398,제주특별자치도 제주시 고산리 3616-9
126.245087,33.32147782,제주특별자치도 제주시 청수리 1634-1
126.2178246,33.29561415,제주특별자치도 제주시 조수리 4007-2 
126.1952854,33.29736621,제주특별자치도 제주시 고산리 1727
126.1855359,33.30670815,제주특별자치도 제주시 고산리 1296-6 
126.1788717,33.3010848,제주특별자치도 제주시 고산리 2825-1 
126.1673273,33.28789724,제주특별자치도 제주시 고산리 3871 
126.1754295,33.33465967,제주특별자치도 제주시 용수리 1504
126.1794248,33.33301794,제주특별자치도 제주시 용수리 1111-1
126.1816137,33.3480409,제주특별자치도 제주시 신창리 368-1
126.1811203,33.3453968,제주특별자치도 제주시 신창리 565
126.2069388,33.37064453,제주특별자치도 제주시 판포리 1600-2
126.1878407,33.30219836,제주특별자치도 제주시 고산리 1890-27
126.2535941,33.32782005,제주특별자치도 제주시 저지리 1504-6 
126.1684391,33.3252698,제주특별자치도 제주시 용수리 4107-6
126.2029587,33.35852784,제주특별자치도 제주시 판포리 2617-1 
126.1790996,33.30751196,제주특별자치도 제주시 고산리 2609-4 
126.1903417,33.34661901,제주특별자치도 제주시 신창리 18-2
126.1828442,33.30306866,제주특별자치도 제주시 고산리 2169-4 
126.2075993,33.35959183,제주특별자치도 제주시 판포리 2126 
126.1965156,33.36443846,제주특별자치도 제주시 판포리 2928-3
126.2011352,33.36490052,제주특별자치도 제주시 판포리 1707
126.2181574,33.3487194,제주특별자치도 제주시 판포리 726
126.2113449,33.34364621,제주특별자치도 제주시 금등리 184-1
126.1956164,33.3593178,제주특별자치도 제주시 금등리 558 
126.1940958,33.36374205,제주특별자치도 제주시 금등리 639
126.1902232,33.36213675,제주특별자치도 제주시 금등리 649-3
126.1823604,33.35750948,제주특별자치도 제주시 두모리 2608
126.1839902,33.35133727,제주특별자치도 제주시 두모리 2876-4
126.1810368,33.35085544,제주특별자치도 제주시 두모리 2818-1 
126.1745233,33.34279241,제주특별자치도 제주시 신창리 1321-2 
126.1856613,33.33715142,제주특별자치도 제주시 신창리 961-1
126.1845468,33.34984038,제주특별자치도 제주시 신창리 233-1
126.1880369,33.34809598,제주특별자치도 제주시 신창리 193-2
126.1843327,33.34900211,제주특별자치도 제주시 신창리 422
126.1633207,33.33541699,제주특별자치도 제주시 용수리 3897-2
126.1664951,33.32421385,제주특별자치도 제주시 용수리 4117-3
126.1633541,33.32459329,제주특별자치도 제주시 용수리 4229-2
126.2012877,33.34006528,제주특별자치도 제주시 두모리 602-8 
126.1937299,33.34338677,제주특별자치도 제주시 두모리 1871-1
126.1956675,33.33438621,제주특별자치도 제주시 두모리1308-7
126.2282967,33.3222723,제주특별자치도 제주시 낙천리 1705-1
126.2256081,33.32760259,제주특별자치도 제주시 낙천리 1909-1
126.2324668,33.31129051,제주특별자치도 제주시 낙천리 1401
126.2246612,33.33089105,제주특별자치도 제주시 조수리 1553 
126.2268336,33.33583868,제주특별자치도 제주시 조수리 1302-3
126.220336,33.2967252,제주특별자치도 제주시 조수리 4034-5
126.214809,33.29417204,제주특별자치도 제주시 조수리 3980-4 
126.236419,33.33703554,제주특별자치도 제주시 저지리 1197-1 
126.2576135,33.34098747,제주특별자치도 제주시 저지리 산13-24 
126.2553379,33.32621186,제주특별자치도 제주시 저지리 1529-4
126.251864,33.32579976,제주특별자치도 제주시 청수리 416-1 
126.2739399,33.31659452,제주특별자치도 제주시 저지리 산39 
126.2664605,33.31689176,제주특별자치도 제주시 저지리 3215
126.2568625,33.33509011,제주특별자치도 제주시 저지리 1799-1
126.2650419,33.34037253,제주특별자치도 제주시 저지리 2114-79
126.2814767,33.30839691,제주특별자치도 제주시 저지리 3267
126.2632345,33.32256704,제주특별자치도 제주시 녹차분재로594-1
126.2462147,33.31997514,제주특별자치도 제주시 청수리 1505-1 
126.2509608,33.30524638,제주특별자치도 제주시 청수리 854-1 
126.2508403,33.31930208,제주특별자치도 제주시 청수리 573
126.2585552,33.30455983,제주특별자치도 제주시 청수리 147-4
126.2391248,33.32391069,제주특별자치도 제주시 청수리 2130
126.243773,33.31305298,제주특별자치도 제주시 청수리 2391
126.1792465,33.3036305,제주특별자치도 제주시 고산리 2205-1
126.1680678,33.29061457,제주특별자치도 제주시 고산리 3818-1
126.16431,33.30826049,제주특별자치도 제주시 고산리 3616-11 
126.1804084,33.30667327,제주특별자치도 제주시 고산리 2409-4 
126.1828674,33.2998503,제주특별자치도 제주시 고산리 3147-4 
126.1862632,33.30244009,제주특별자치도 제주시 고산리 1885-13
126.1883341,33.30307585,제주특별자치도 제주시 고산리 1999-5
126.1984312,33.30299433,제주특별자치도 제주시 고산리 451
126.2050881,33.29594895,제주특별자치도 제주시 고산리 250 
126.1924396,33.3020408,제주특별자치도 제주시 고산남8길7
126.1912203,33.30134251,제주특별자치도 제주시 고산남6길21
126.1890094,33.30481786,제주특별자치도 제주시 고산리 2103-3
126.2339435,33.29264453,제주특별자치도 제주시 청수리 3277
126.2396598,33.3082407,제주특별자치도 제주시 청수리 2503-2
126.238793,33.3104285,제주특별자치도 제주시 수룡 4길1 459-9
126.2415082,33.30778482,제주특별자치도 제주시 청수리 2477-1
126.2379382,33.30259855,제주특별자치도 제주시 청수리 3388-1
126.2979395,33.96268191,제주특별자치도 제주시 대서리 4-4
126.2972639,33.9636376,제주특별자치도 제주시 대서리 8-4
126.2950107,33.96264588,제주특별자치도 제주시 대서리 147-2
126.2943026,33.96196311,제주특별자치도 제주시 대서리 147-16
126.2952029,33.96083202,제주특별자치도 제주시 영흥리 366-8
126.2962498,33.95994532,제주특별자치도 제주시 영흥리 362-3
126.2971845,33.95979207,제주특별자치도 제주시 영흥리 367-14
126.3124625,33.9447949,제주특별자치도 제주시 묵리 731-6
126.2927582,33.96115876,제주특별자치도 제주시 영흥리 325-5
126.2939101,33.95985115,제주특별자치도 제주시 영흥리 307
126.3149098,33.9447901,제주특별자치도 제주시 묵리 216
126.3221448,33.94065601,제주특별자치도 제주시 신양리 841-2
126.3236818,33.94037354,제주특별자치도 제주시 신양리 874-8
126.32673,33.94464231,제주특별자치도 제주시 신양리 448-3
126.3275564,33.9452052,제주특별자치도 제주시 신양리 434-9
126.3294482,33.9447225,제주특별자치도 제주시 신양리 434-1
126.3321299,33.9471206,제주특별자치도 제주시 신양리 172-1
126.3325137,33.9554806,제주특별자치도 제주시 예초리 200-7
126.2935262,33.96356671,제주특별자치도 제주시 대서리 83-1
126.2962251,33.96356165,제주특별자치도 제주시 대서리 19-2
126.3175123,33.94114866,제주특별자치도 제주시 묵리 134-1
126.3226215,33.94049186,제주특별자치도 제주시 신양리 839-1
126.9537452,33.50742182,제주특별자치도 제주시 우도면 연평리 1457
126.943551,33.50973567,제주특별자치도 제주시 우도면 연평리 2384-5
126.9470041,33.5039075,제주특별자치도 제주시 우도면 연평리 2072-2
126.968834,33.51468569,제주특별자치도 제주시 우도면 연평리 5-1
126.9518514,33.51869629,제주특별자치도 제주시 우도면 연평리 926
126.9503075,33.51913345,제주특별자치도 제주시 우도면 연평리 890-2
126.9685049,33.49772334,제주특별자치도 제주시 우도면 연평리 312
126.9461781,33.49441855,제주특별자치도 제주시 우도면 연평리 2650-1
126.952734,33.49471028,제주특별자치도 제주시 우도면 연평리 1675-3
126.9668174,33.50211708,제주특별자치도 제주시 우도면 연평리 243
126.9494391,33.51635396,제주특별자치도 제주시 우도면 연평리 969-1
126.9533508,33.49677274,제주특별자치도 제주시 우도면 연평리 1604-3
126.9642736,33.50251195,제주특별자치도 제주시 우도면 연평리 208-1
126.9529149,33.49222213,제주특별자치도 제주시 우도면 연평리 1735-3
126.9486581,33.49630439,제주특별자치도 제주시 우도면 연평리 1830-2
126.9603753,33.51099538,제주특별자치도 제주시 우도면 연평리 638-3
126.5263771,33.51505788,제주특별자치도 제주시 중앙로7길15
126.5292539,33.51362387,제주특별자치도 제주시 만덕로6길26
126.5310471,33.5126762,제주특별자치도 제주시 신산로2길8
126.5297602,33.512214,제주특별자치도 제주시 신산로2길21
126.5285508,33.51234883,제주특별자치도 제주시 동문로4길7-9
126.5270225,33.51032588,제주특별자치도 제주시 일도1동 1488-3
126.5283768,33.50979397,제주특별자치도 제주시 신선서길10-19
126.529543,33.51159449,제주특별자치도 제주시 동문로6길17-3
126.5306267,33.51198863,제주특별자치도 제주시 동문로8길11-2
126.5261175,33.51402874,제주특별자치도 제주시 관덕로13길12
126.522949,33.51446827,제주특별자치도 제주시 관덕로7길 13
126.5241377,33.5149838,제주특별자치도 제주시 중앙로8길 2 
126.5314108,33.50996137,제주특별자치도 제주시 일도2동 1029-22
126.5292003,33.50706992,제주특별자치도 제주시 일도2동 1046-2
126.5308722,33.50744902,제주특별자치도 제주시 일도2동 1036-6
126.5331961,33.50848159,제주특별자치도 제주시 일도2동 1032-5
126.5312175,33.51045702,제주특별자치도 제주시 일도2동 1029-25
126.5345103,33.51345821,제주특별자치도 제주시 일도2동 992-11
126.5344404,33.51166556,제주특별자치도 제주시 일도2동 1006-20
126.5364218,33.51360378,제주특별자치도 제주시 일도2동 982-1
126.5373658,33.51285173,제주특별자치도 제주시 일도2동 601-5
126.5366108,33.51218761,제주특별자치도 제주시 일도2동 984-3 
126.5329504,33.51025618,제주특별자치도 제주시 일도2동 1020-1
126.538594,33.51082235,제주특별자치도 제주시 일도2동 320-1 
126.5371291,33.5103507,제주특별자치도 제주시 일도2동 162-29 
126.5368694,33.51021138,제주특별자치도 제주시 일도2동 162-31 
126.5355121,33.50882499,제주특별자치도 제주시 일도2동 165-6 
126.5336058,33.50802705,제주특별자치도 제주시 일도2동 823-3
126.5352973,33.50556063,제주특별자치도 제주시 일도2동 875
126.5363496,33.50694183,제주특별자치도 제주시 일도2동 337 
126.5379295,33.50747651,제주특별자치도 제주시 일도2동 352 
126.5330769,33.51205929,제주특별자치도 제주시 일도2동 995-6
126.539997,33.51132254,제주특별자치도 제주시 일도2동 322 
126.5406136,33.51342839,제주특별자치도 제주시 일도2동 133-9 
126.5419193,33.51312903,제주특별자치도 제주시 일도2동 138-17 
126.5418742,33.51133491,제주특별자치도 제주시 일도2동 154 
126.5423416,33.51098973,제주특별자치도 제주시 일도2동 154-15 
126.543204,33.51108114,제주특별자치도 제주시 일도2동 153-5 
126.5406072,33.5089051,제주특별자치도 제주시 일도2동 355-8 
126.5394503,33.5058696,제주특별자치도 제주시 일도2동 365-1 
126.5415247,33.50388415,제주특별자치도 제주시 일도2동 414
126.5412308,33.5054791,제주특별자치도 제주시 일도2동 459
126.5437366,33.50814065,제주특별자치도 제주시 일도2동 397 
126.5458453,33.50743511,제주특별자치도 제주시 일도2동 45
126.5434568,33.5062879,제주특별자치도 제주시 일도2동 405-3
126.5424892,33.50541832,제주특별자치도 제주시 일도2동 408 
126.5440139,33.51200925,제주특별자치도 제주시 일도2동 511
126.5474485,33.50448969,제주특별자치도 제주시 일도2동 46-2 
126.5448059,33.50224489,제주특별자치도 제주시 일도2동 65 
126.5438771,33.50240382,제주특별자치도 제주시 일도2동 54-6 
126.5454276,33.49993106,제주특별자치도 제주시 일도2동 82-8
126.5465014,33.50012747,제주특별자치도 제주시 일도2동 87-6 
126.5472523,33.50005479,제주특별자치도 제주시 일도2동 88
126.5468106,33.49981482,제주특별자치도 제주시 일도2동 88-1
126.5495126,33.49960094,제주특별자치도 제주시 일도2동 112
126.5509812,33.49958913,제주특별자치도 제주시 일도2동 18-1 
126.5350178,33.50670319,제주특별자치도 제주시 일도2동 338-2
126.5358514,33.51070232,제주특별자치도 제주시 일도2동 1011-1 
126.5397077,33.51370128,제주특별자치도 제주시 일도2동 133-2 
126.5408349,33.51044855,제주특별자치도 제주시 일도2동 326 
126.5450723,33.50807465,제주특별자치도 제주시 일도2동 401-13 
126.5341192,33.50375204,제주특별자치도 제주시 동광로11길 5
126.5324584,33.50377182,제주특별자치도 제주시 동광로7길 16-28
126.5307294,33.50440994,제주특별자치도 제주시 동광로9길 39
126.5287182,33.50224655,제주특별자치도 제주시 동광로1길 15
126.5276109,33.50426825,제주특별자치도 제주시 광양1길 8
126.5296079,33.50337297,제주특별자치도 제주시 광양1길 34
126.5272453,33.50639732,제주특별자치도 제주시 오현길 9
126.5270663,33.50663492,제주특별자치도 제주시 중앙로25길 17
126.5251434,33.50727586,제주특별자치도 제주시 고전길 15-1
126.527624,33.50766631,제주특별자치도 제주시 중앙로23길 26
126.5271532,33.50860845,제주특별자치도 제주시 중앙로21길 29
126.5251345,33.50836945,제주특별자치도 제주시 고전길 26
126.5256195,33.50892451,제주특별자치도 제주시 오현길 49
126.524267,33.50910669,제주특별자치도 제주시 중앙로17길 6
126.5256822,33.51083706,제주특별자치도 제주시 오현길67
126.5243701,33.5098707,제주특별자치도 제주시 성지로7
126.526315,33.50354448,제주특별자치도 제주시 서광로29길 38
126.5271285,33.50258347,제주특별자치도 제주시 광양2길 25
126.5262162,33.50179282,제주특별자치도 제주시 서광로29길 17
126.5253461,33.50048154,제주특별자치도 제주시 서광로27길 2
126.524898,33.51205974,제주특별자치도 제주시 오현길81
126.5233722,33.51052683,제주특별자치도 제주시 관덕로8길 31
126.535142,33.50309695,제주특별자치도 제주시 일도2동 857-3 
126.5313213,33.50123306,제주특별자치도 제주시 동광로4길 3
126.5325822,33.50062393,제주특별자치도 제주시 동광로6길 17
126.5313362,33.4992873,제주특별자치도 제주시 광양11길 10-1
126.5323844,33.49984223,제주특별자치도 제주시 광양11길24
126.5362818,33.49908235,제주특별자치도 제주시 가령로 58
126.5351657,33.49645703,제주특별자치도 제주시 고산동산5길 24
126.5340467,33.49726111,제주특별자치도 제주시 가령로4길 11
126.5335414,33.49798664,제주특별자치도 제주시 고산동산 3길 24
126.5317952,33.4958941,제주특별자치도 제주시 신성로14길 19
126.5308535,33.49370175,제주특별자치도 제주시 신성로10길 37
126.5311976,33.49578904,제주특별자치도 제주시 신성로12길 17
126.5287829,33.49271715,제주특별자치도 제주시 도남로13길 4
126.5484483,33.4970715,제주특별자치도 제주시 신설동길 17
126.5376592,33.50356881,제주특별자치도 제주시 가령골1길 5 
126.5382359,33.49973113,제주특별자치도 제주시 청귤로 15 
126.5390572,33.49890098,제주특별자치도 제주시 청귤로 7길2
126.5386676,33.50200613,제주특별자치도 제주시 청귤로1길 40
126.5451254,33.49736846,제주특별자치도 제주시 이도공원길 44-21
126.5440141,33.49820318,제주특별자치도 제주시 이도공원길 37
126.5415025,33.4989357,제주특별자치도 제주시 정든로1길 18
126.5444292,33.49907105,제주특별자치도 제주시 정든로 106
126.5418056,33.49780948,제주특별자치도 제주시 정든로3길 9
126.5420403,33.49922171,제주특별자치도 제주시 정든로3길 28
126.5440143,33.49917039,제주특별자치도 제주시 정든로 61 
126.5516144,33.49067304,제주특별자치도 제주시 신설동길 100
126.550949,33.49209189,제주특별자치도 제주시 신설동길 82 
126.5466856,33.49534999,제주특별자치도 제주시 신설로5길 38
126.5474496,33.49401637,제주특별자치도 제주시 이도이동 1955-4
126.5448028,33.4929262,제주특별자치도 제주시 신설로9길2-2
126.5501007,33.49331867,제주특별자치도 제주시 신설동길 66 
126.5366908,33.49379688,제주특별자치도 제주시 오복2길 27
126.5372522,33.494197,제주특별자치도 제주시 남광북3길 18-15
126.5359438,33.49589649,제주특별자치도 제주시 이도이동 1064
126.5384184,33.49260934,제주특별자치도 제주시 이도이동 1993-1
126.5376068,33.49188977,제주특별자치도 제주시 남광로2길 7
126.5400358,33.48891015,제주특별자치도 제주시 이도이동 1986-5
126.5425793,33.49029131,제주특별자치도 제주시 남광로 2길 49-27
126.5405372,33.49105333,제주특별자치도 제주시 남광로4길 33
126.5431513,33.49456288,제주특별자치도 제주시 신설로 16 
126.5419503,33.49469114,제주특별자치도 제주시 신설로2길 9
126.5430527,33.49281583,제주특별자치도 제주시 신설로6길 2-11
126.5376048,33.4865955,제주특별자치도 제주시 구남로6길55-1 
126.5363327,33.48792262,제주특별자치도 제주시 구남동 6길 31
126.5338582,33.48806236,제주특별자치도 제주시 구남동2길 45-6
126.5347682,33.48668618,제주특별자치도 제주시 구남로2길 36
126.5334587,33.48756887,제주특별자치도 제주시 구남동2길 51-3
126.532659,33.48840141,제주특별자치도 제주시 구남로2길 8
126.5349394,33.49005617,제주특별자치도 제주시 구남동2길 22-11
126.5360489,33.49064988,제주특별자치도 제주시 구남로8길 10-2
126.5383374,33.48872178,제주특별자치도 제주시 구남동6길6
126.5313645,33.48967536,제주특별자치도 제주시 독짓골8길 57
126.5307346,33.48896919,제주특별자치도 제주시 독짓골8길67
126.5297377,33.4903526,제주특별자치도 제주시 도남로17길7
126.5352623,33.49157607,제주특별자치도 제주시 구남로7길 42-1
126.5335163,33.49401351,제주특별자치도 제주시 구남로7길 13
126.5326609,33.49367195,제주특별자치도 제주시 구남로7길 4
126.5286175,33.49155548,제주특별자치도 제주시 도남동 65-3
126.5489097,33.49253315,제주특별자치도 제주시 이도이동 124
126.5237483,33.48871593,제주특별자치도 제주시 복지로3길 11-9
126.5224255,33.48825229,제주특별자치도 제주시 복지로3길 16-1
126.5255603,33.48874931,제주특별자치도 제주시 복지로7길 4
126.5197731,33.49043985,제주특별자치도 제주시 청사로1길 18-4
126.5270375,33.48912169,제주특별자치도 제주시 복지로9길 28-2
126.5295348,33.48550204,제주특별자치도 제주시 원남6길 42
126.525207,33.49266427,제주특별자치도 제주시 신성로6길 29-2
126.5266672,33.49341758,제주특별자치도 제주시 도남로8길 19-2 
126.5275904,33.49334816,제주특별자치도 제주시 도남로10길 1-5
126.5269656,33.49388253,제주특별자치도 제주시 도남동 55
126.5223673,33.49414918,제주특별자치도 제주시 신성로4길 37
126.5240168,33.49464362,제주특별자치도 제주시 도남로10길 35-4
126.5232943,33.49577434,제주특별자치도 제주시 신성로2길17
126.5213132,33.49593233,제주특별자치도 제주시 신성로 14 
126.5208989,33.49782758,제주특별자치도 제주시 서광로18길 23 
126.523378,33.49713347,제주특별자치도 제주시 서광로22길 31
126.5262585,33.49813589,제주특별자치도 제주시 도남로3길 3-2
126.5254876,33.49977275,제주특별자치도 제주시 도남동 914-3
126.5262151,33.4993644,제주특별자치도 제주시 서광로28길 1
126.5243927,33.49652148,제주특별자치도 제주시 서광로26길 38-1
126.5249849,33.49506613,제주특별자치도 제주시 신성로2길 34
126.521349,33.48801948,제주특별자치도 제주시 복지로북길 2-20
126.5508141,33.49476214,제주특별자치도 제주시 이도이동 70
126.537497,33.50460475,제주특별자치도 제주시 동광로 86
126.5405625,33.50296332,제주특별자치도 제주시 천수로 33
126.5416924,33.50148283,제주특별자치도 제주시 청귤로3길 44
126.5252521,33.49751918,제주특별자치도 제주시 도남로4길 6-1
126.5305024,33.48780421,제주특별자치도 제주시 이도이동 1927-5
126.5390946,33.4959419,제주특별자치도 제주시 승천로 22
126.5349921,33.49464165,제주특별자치도 제주시 남광북1길 8
126.5238809,33.48037768,제주특별자치도 제주시 연북로 398
126.5189916,33.49847207,제주특별자치도 제주시 서사로24길 6
126.517602,33.49849262,제주특별자치도 제주시 서사로24길 24
126.5174342,33.49940556,제주특별자치도 제주시 삼오길 9
126.5189804,33.49911234,제주특별자치도 제주시 삼오길 24
126.5213333,33.49886822,제주특별자치도 제주시 서사로21길 15
126.5218097,33.4992801,제주특별자치도 제주시 서광로20길 4
126.5195972,33.50115554,제주특별자치도 제주시 서사로 126
126.5159235,33.50147355,제주특별자치도 제주시 삼도일동 505
126.5187269,33.50171686,제주특별자치도 제주시 평전3길 4
126.5179734,33.50032819,제주특별자치도 제주시 삼도일동 519 
126.5150603,33.50333044,제주특별자치도 제주시 삼도일동 499-3
126.5182236,33.50368463,제주특별자치도 제주시 서사로14길 16
126.5244418,33.5015624,제주특별자치도 제주시 서광로27길 21
126.5218109,33.50217075,제주특별자치도 제주시 삼도일동 547-11
126.5200893,33.50208272,제주특별자치도 제주시 서사로 115
126.5227627,33.50272499,제주특별자치도 제주시 서사로15길 27
126.5230065,33.50355108,제주특별자치도 제주시 홍랑길 43
126.5224765,33.50382875,제주특별자치도 제주시 전농로 88
126.5194384,33.50497389,제주특별자치도 제주시 서사로 84
126.5146321,33.50526711,제주특별자치도 제주시 전농로1길 9
126.5156576,33.50651088,제주특별자치도 제주시 전농로1길 26
126.5190545,33.50604621,제주특별자치도 제주시 삼도일동 785-1
126.517255,33.50800613,제주특별자치도 제주시 전농로1길 50
126.519092,33.50806353,제주특별자치도 제주시 충효길 41
126.5195464,33.50983037,제주특별자치도 제주시 서사로 28
126.5202965,33.50495362,제주특별자치도 제주시 전농로9길 7
126.5219356,33.50525518,제주특별자치도 제주시 전농로11길 10
126.523032,33.50480945,제주특별자치도 제주시 중앙로26길25
126.5237343,33.50722201,제주특별자치도 제주시 남성로26길 26
126.5222794,33.50615413,제주특별자치도 제주시 남성로22길 44
126.5204786,33.50730788,제주특별자치도 제주시 서사로7길 5
126.5238524,33.50707412,제주특별자치도 제주시 남성로26길 28
126.523096,33.50839506,제주특별자치도 제주시 남성로26길 12
126.5216385,33.50875442,제주특별자치도 제주시 남성로154-6
126.5209572,33.50896216,제주특별자치도 제주시 남성로22길 2
126.5216204,33.51024694,제주특별자치도 제주시 남성로23길 15
126.5203209,33.51019275,제주특별자치도 제주시 남성로143-19
126.520091,33.5121262,제주특별자치도 제주시 삼도이동 839
126.5214026,33.51232079,제주특별자치도 제주시 관덕로4길 9
126.5222073,33.51208697,제주특별자치도 제주시 관덕로6길 11
126.5232626,33.51231743,제주특별자치도 제주시 중앙로12길 14
126.5237407,33.51468304,제주특별자치도 제주시 중앙로8길 13
126.5213231,33.51430103,제주특별자치도 제주시 관덕로3길 13-1
126.5186538,33.51368122,제주특별자치도 제주시 무근성3길 3
126.5196438,33.51462254,제주특별자치도 제주시 무근성길 40
126.5190334,33.51462781,제주특별자치도 제주시 무근성1길 10
126.5178029,33.51686273,제주특별자치도 제주시 탑동로9길 18
126.5178878,33.51768974,제주특별자치도 제주시 탑동로9길7
126.5208029,33.51704207,제주특별자치도 제주시 탑동로13길 39
126.5218782,33.51669205,제주특별자치도 제주시 탑동로3길 8
126.5228141,33.51641534,제주특별자치도 제주시 탑동로3길 24
126.5212825,33.51592866,제주특별자치도 제주시 북성로 33
126.5227344,33.51782061,제주특별자치도 제주시 탑동로4길 66
126.5184529,33.51507651,제주특별자치도 제주시 무근성3길 66
126.5231984,33.50731014,제주특별자치도 제주시 중앙로22길 11
126.515721,33.51654181,제주특별자치도 제주시 동한두기길 19
126.5178637,33.51390647,제주특별자치도 제주시 용담일동 21-1
126.5171629,33.5127593,제주특별자치도 제주시 용담일동 82-1
126.5177976,33.51222477,제주특별자치도 제주시 용담일동 98
126.5170236,33.51156414,제주특별자치도 제주시 용담일동 131-3
126.5158738,33.51151306,제주특별자치도 제주시 용담일동 298-1
126.5155541,33.51274307,제주특별자치도 제주시 용담일동 331
126.5183477,33.51130416,제주특별자치도 제주시 용담일동 143-1
126.5173622,33.510244,제주특별자치도 제주시 용담일동 138-1
126.5167721,33.51105014,제주특별자치도 제주시 용담일동 132-6
126.5159554,33.51063659,제주특별자치도 제주시 용담일동 295-4
126.5159771,33.50935298,제주특별자치도 제주시 용담일동 220-13
126.5158301,33.50984803,제주특별자치도 제주시 용담일동 292-27
126.5127262,33.51034804,제주특별자치도 제주시 용담일동 306-16
126.5138568,33.50983157,제주특별자치도 제주시 용담일동 242-1
126.5120712,33.5069369,제주특별자치도 제주시 용담일동 260
126.5120347,33.50831249,제주특별자치도 제주시 용담일동 257-21
126.5120921,33.5060647,제주특별자치도 제주시 용담일동 263-1
126.513717,33.50544567,제주특별자치도 제주시 용담일동 251-24
126.5121546,33.50478526,제주특별자치도 제주시 용담일동 267-2
126.5140596,33.5047518,제주특별자치도 제주시 용담일동 266-1
126.5120315,33.50195728,제주특별자치도 제주시 용담일동 2647-41
126.5124498,33.50032997,제주특별자치도 제주시 용담일동 2651-1
126.5137261,33.51499383,제주특별자치도 제주시 용담이동 454-2
126.5135529,33.51243323,제주특별자치도 제주시 용두암길 58
126.5122784,33.5137974,제주특별자치도 제주시 흥운길 55-9
126.5074073,33.5145296,제주특별자치도 제주시 용담로1길 18
126.5106635,33.51123554,제주특별자치도 제주시 성화로6길 50
126.509095,33.50939771,제주특별자치도 제주시 용화로 52
126.5075086,33.50996224,제주특별자치도 제주시 용화로 37
126.504358,33.51038232,제주특별자치도 제주시 성화로1길 5
126.5081365,33.51090417,제주특별자치도 제주시 용화로9길 14
126.5067846,33.51207818,제주특별자치도 제주시 용화로5길 24
126.5033509,33.51164808,제주특별자치도 제주시 용해로 65
126.504377,33.5114828,제주특별자치도 제주시 성화로5길 11
126.5056022,33.51344293,제주특별자치도 제주시 용마로1
126.507787,33.51410874,제주특별자치도 제주시 용마로2길 36
126.5058585,33.51509332,제주특별자치도 제주시 용마로3길 11
126.5045242,33.5146643,제주특별자치도 제주시 용마서2길 13
126.5050286,33.51593211,제주특별자치도 제주시 용마서1길 27
126.4998356,33.51765223,제주특별자치도 제주시 용담삼동 1071
126.4891863,33.51838446,제주특별자치도 제주시 서해안로 456-12
126.5106825,33.50856711,제주특별자치도 제주시 용문로 158-3
126.5112722,33.50819077,제주특별자치도 제주시 용문로20길 16
126.5107828,33.50589483,제주특별자치도 제주시 용문로18길 27
126.5098738,33.50477037,제주특별자치도 제주시 용원1길 18
126.4996602,33.49893188,제주특별자치도 제주시 월성로4길 65
126.5105284,33.50365606,제주특별자치도 제주시 용문로18길 53
126.5094944,33.50228257,제주특별자치도 제주시 한천로37
126.5083409,33.50348642,제주특별자치도 제주시 용원길 19
126.5082847,33.50138451,제주특별자치도 제주시 한천로 22
126.5004314,33.49967767,제주특별자치도 제주시 월성로4길 54
126.5026361,33.4999863,제주특별자치도 제주시 명신3길 5
126.5034014,33.50207921,제주특별자치도 제주시 월성로4길 16
126.5039182,33.50342722,제주특별자치도 제주시 월성로2길 3
126.5069767,33.50480915,제주특별자치도 제주시 용해로 147
126.508858,33.50788169,제주특별자치도 제주시 용문로17길 6
126.5068889,33.50765965,제주특별자치도 제주시 용문로17길 25
126.507194,33.51582321,제주특별자치도 제주시 용담로1길 33
126.507563,33.50914536,제주특별자치도 제주시 용화로10길 8
126.5099547,33.50889726,제주특별자치도 제주시 용문로157
126.5040354,33.50940115,제주특별자치도 제주시 용화로 6-9
126.5051942,33.50345551,제주특별자치도 제주시 용문로 88
126.4943006,33.51974288,제주특별자치도 제주시 어영길 1-1
126.5113252,33.50968385,제주특별자치도 제주시 용한로3
126.5120767,33.51584872,제주특별자치도 제주시 서해안로 687-1
126.5109212,33.50213046,제주특별자치도 제주시 서천길 5-1
126.5088736,33.51270938,제주특별자치도 제주시 용담로 58
126.5060664,33.51062602,제주특별자치도 제주시 용화로5길 7
126.5076,33.5162188,제주특별자치도 제주시 서해안로 660
126.4992722,33.51902437,제주특별자치도 제주시 서해안로 572
126.5008695,33.50418174,제주특별자치도 제주시 공항로1길 48
126.5252464,33.51651567,제주특별자치도 제주시 임항로 8
126.5283792,33.51625844,제주특별자치도 제주시 중앙로1길 33
126.5278784,33.51681252,제주특별자치도 제주시 서부두길 2
126.5320078,33.51758786,제주특별자치도 제주시 임항로 85
126.5308493,33.51598801,제주특별자치도 제주시 산지로 5-15
126.538727,33.51519041,제주특별자치도 제주시 임항로287
126.5308737,33.51494198,제주특별자치도 제주시 만덕로4길 10-1
126.532217,33.51493679,제주특별자치도 제주시 만덕로3길 2
126.5330567,33.51591507,제주특별자치도 제주시 만덕로3길 19
126.5337678,33.51460274,제주특별자치도 제주시 연무정동2길 13
126.5343901,33.51498189,제주특별자치도 제주시 연무정동길 19
126.5352796,33.51645551,제주특별자치도 제주시 연무정길 32 
126.539323,33.51618822,제주특별자치도 제주시 사라봉9길21 
126.5357255,33.51805771,제주특별자치도 제주시 칠머리길15-1 
126.537644,33.51685271,제주특별자치도 제주시 연무정길5
126.5368504,33.51407658,제주특별자치도 제주시 동문로95 
126.538128,33.51538184,제주특별자치도 제주시 임항로 286
126.5381196,33.51771773,제주특별자치도 제주시 동대북길1 
126.5398967,33.51755907,제주특별자치도 제주시 사라봉7길 5
126.5414231,33.5186521,제주특별자치도 제주시 임항로235
126.5396272,33.51691662,제주특별자치도 제주시 사라봉7길14 
126.5411053,33.51463721,제주특별자치도 제주시 사라봉1길 50
126.541191,33.51510687,제주특별자치도 제주시 사라봉1길 42
126.5520975,33.51337571,제주특별자치도 제주시 건화길26 
126.5395448,33.5201663,제주특별자치도 제주시 임항로146 
126.5402198,33.51870926,제주특별자치도 제주시 임항로242
126.5697824,33.52268001,제주특별자치도 제주시 삼사석길45
126.5673604,33.52460542,제주특별자치도 제주시 진동로 64
126.5664053,33.52235922,제주특별자치도 제주시 진남로8길41
126.5664405,33.5230968,제주특별자치도 제주시 진남로8길50
126.5653397,33.52350563,제주특별자치도 제주시 진남로49
126.5644749,33.52544273,제주특별자치도 제주시 금산5길24-3
126.5638746,33.52631422,제주특별자치도 제주시 금산5길41
126.5633825,33.52395083,제주특별자치도 제주시 금산3길5-1
126.560767,33.48752398,제주특별자치도 제주시 기와1길 55
126.5617933,33.52277984,제주특별자치도 제주시 진남로15
126.5676078,33.51929951,제주특별자치도 제주시 진남로8길2
126.5665901,33.52019485,제주특별자치도 제주시 진동로3길30
126.565407,33.52175417,제주특별자치도 제주시 진남로6길 35
126.5595939,33.52309236,제주특별자치도 제주시 곤을길23
126.5648308,33.52070252,제주특별자치도 제주시 진남로4길10
126.5646318,33.51943716,제주특별자치도 제주시 진동로1길3
126.5641388,33.52121923,제주특별자치도 제주시 진동로5길9
126.563222,33.52116721,제주특별자치도 제주시 진서로28
126.5629686,33.52258012,제주특별자치도 제주시 진남로2길45
126.5529705,33.51268115,제주특별자치도 제주시 문화마을길 5-1
126.5566535,33.51434966,제주특별자치도 제주시 거로길 1
126.5586068,33.51270048,제주특별자치도 제주시 거로길37
126.5587478,33.51161024,제주특별자치도 제주시 거로중길 34
126.5620775,33.51578764,제주특별자치도 제주시 선반로41
126.5636842,33.51400498,제주특별자치도 제주시 화남로45
126.560982,33.51066665,제주특별자치도 제주시 거로남3길 22
126.5614818,33.50962981,제주특별자치도 제주시 거로남6길5
126.5623567,33.50818092,제주특별자치도 제주시 거로남4길 19-8
126.5608958,33.49335135,제주특별자치도 제주시 황사평6길73
126.5734998,33.51943284,제주특별자치도 제주시 동화로1길 3
126.5783875,33.51837004,제주특별자치도 제주시 동화로1길 45-22
126.576647,33.51819699,제주특별자치도 제주시 동화로1길49
126.5683702,33.50361749,제주특별자치도 제주시 부록길 22
126.5585384,33.51484986,제주특별자치도 제주시 거로동길13
126.5679104,33.52296357,제주특별자치도 제주시 진동로 44
126.5592512,33.51887899,제주특별자치도 제주시 동제원길41
126.5668054,33.52113563,제주특별자치도 제주시 진남로8길25
126.5662762,33.52441236,제주특별자치도 제주시 진북길18
126.5558942,33.51276209,제주특별자치도 제주시 거로서길15
126.5774414,33.51683984,제주특별자치도 제주시 화삼북로4길10
126.5653684,33.52021053,제주특별자치도 제주시 진남로6길17
126.5701379,33.51807732,제주특별자치도 제주시 청풍남8길12-1
126.5679538,33.47767158,제주특별자치도 제주시 영평동2791
126.5625553,33.52510473,제주특별자치도 제주시 화북일동4301-4
126.5636122,33.51993453,제주특별자치도 제주시 진서로 12
126.5485104,33.51138321,제주특별자치도 제주시 일주동로6
126.5498981,33.51204089,제주특별자치도 제주시 일주동로22
126.5625146,33.51163763,제주특별자치도 제주시 선반남2길30-9
126.5597313,33.51226474,제주특별자치도 제주시 선반남2길1
126.5656938,33.51749028,제주특별자치도 제주시 청풍남4길13
126.5665031,33.51851554,제주특별자치도 제주시 일주동로 196
126.5704297,33.51904564,제주특별자치도 제주시 일주동로 232
126.5748679,33.51443959,제주특별자치도 제주시 화삼로 17
126.5619301,33.5013667,제주특별자치도 제주시 화북이동3141-1
126.5615799,33.49586387,제주특별자치도 제주시 황사평4길 14-19
126.5580766,33.49014059,제주특별자치도 제주시 기와5길 87
126.5634504,33.50971686,제주특별자치도 제주시 거로남8길 23
126.5921409,33.53079105,제주특별자치도 제주시 삼양일동 1062-1
126.5915124,33.5281332,제주특별자치도 제주시 삼양일동 1588-1
126.5870442,33.5208511,제주특별자치도 제주시 삼양이동 2181-14
126.5905639,33.52685665,제주특별자치도 제주시 삼양일동 1628-7
126.5906778,33.52550421,제주특별자치도 제주시 삼양일동 1651-5
126.587858,33.52626056,제주특별자치도 제주시 삼양일동 1598-2
126.5902084,33.52411091,제주특별자치도 제주시 삼양일동 1521-36
126.5883749,33.52302076,제주특별자치도 제주시 삼양일동 1665-1
126.586917,33.52494375,제주특별자치도 제주시 삼양일동 1657-8
126.5843494,33.52464619,제주특별자치도 제주시 삼양이동 1953
126.5839724,33.52021073,제주특별자치도 제주시 삼양이동 2179-10
126.5832317,33.52211447,제주특별자치도 제주시 삼양이동 2130-1
126.5820276,33.52420868,제주특별자치도 제주시 삼양이동 2100-2
126.5741496,33.52527614,제주특별자치도 제주시 삼양삼동 2650-3
126.5801418,33.52006694,제주특별자치도 제주시 삼양이동 2154-1
126.5845944,33.52208696,제주특별자치도 제주시 삼양이동 2133-5
126.5761548,33.52670623,제주특별자치도 제주시 벌랑길 71 
126.5898254,33.51446433,제주특별자치도 제주시 도련이동 568-18
126.5891106,33.50953849,제주특별자치도 제주시 도련1길
126.5858593,33.51015032,제주특별자치도 제주시 도련3길 37
126.5846265,33.50901635,제주특별자치도 제주시 도련일동 2254-1
126.5818139,33.52459348,제주특별자치도 제주시 삼양이동 2009-1
126.582575,33.50872102,제주특별자치도 제주시 도련일동 2238-3
126.5913768,33.5312597,제주특별자치도 제주시 삼양일동 1912-5
126.5935535,33.52949013,제주특별자치도 제주시 삼양일동 1579-1
126.5891146,33.52958916,제주특별자치도 제주시 삼양일동 1939-5
126.5922692,33.52727548,제주특별자치도 제주시 삼양일동 1637-1
126.5936726,33.5217939,제주특별자치도 제주시 삼양일동 1254-5
126.5963565,33.52115665,제주특별자치도 제주시 삼양일동 1315-1
126.5978515,33.52519053,제주특별자치도 제주시 삼양일동 산 1-1
126.5875562,33.52256647,제주특별자치도 제주시 삼양이동 2127-1
126.583998,33.52562913,제주특별자치도 제주시 삼양이동 1965-3
126.5862681,33.52255848,제주특별자치도 제주시 삼양이동 2124-7
126.5797318,33.52430393,제주특별자치도 제주시 삼양삼동 2446-4
126.5767416,33.52445484,제주특별자치도 제주시 삼양삼동 2536-2
126.5895157,33.51575685,제주특별자치도 제주시 도련이동 581-1
126.5917769,33.51512789,제주특별자치도 제주시 도련이동 645-6
126.5928003,33.51452062,제주특별자치도 제주시 도련이동 454-2
126.5904539,33.50903065,제주특별자치도 제주시 도련일동 1740-1
126.5827481,33.50737995,제주특별자치도 제주시 도련일동 2225-6
126.5799518,33.50718236,제주특별자치도 제주시 도련일동 2746
126.578001,33.51470165,제주특별자치도 제주시 도련일동 2043-1
126.587896,33.50763453,제주특별자치도 제주시 도련일동 1640-2
126.5782638,33.51255598,제주특별자치도 제주시 도련일동 1983-5
126.5837887,33.51301283,제주특별자치도 제주시 도련일동 1912
126.5845611,33.5122069,제주특별자치도 제주시 도련일동 1907-6
126.5942647,33.50129406,제주특별자치도 제주시 도련일동 1035-1
126.5751902,33.50671125,제주특별자치도 제주시 도련일동 2852
126.5927766,33.49261463,제주특별자치도 제주시 제주시 봉개동 1811-1
126.5909726,33.49202235,제주특별자치도 제주시 제주시 봉개동 2428-3
126.5937052,33.48831619,제주특별자치도 제주시 제주시 봉개동 2015-9
126.5967961,33.48778372,제주특별자치도 제주시 제주시 봉개동 2084-3
126.5862531,33.47784346,제주특별자치도 제주시 제주시 용강동 1538-1
126.5859172,33.47665097,제주특별자치도 제주시 제주시 용강동 1306-4
126.6110359,33.47052479,제주특별자치도 제주시 제주시 봉개동 418-4
126.6087648,33.49877347,제주특별자치도 제주시 제주시 회천동 2177-3
126.6215515,33.49212734,제주특별자치도 제주시 제주시 회천동 3264
126.5986211,33.48901293,제주특별자치도 제주시 제주시 봉개동 1552-7
126.5939073,33.49145536,제주특별자치도 제주시 제주시 봉개동 1819-18
126.5900084,33.49066211,제주특별자치도 제주시 제주시 봉개동 2482-4
126.6039323,33.48413049,제주특별자치도 제주시 제주시 봉개동 609-2
126.6113451,33.46846921,제주특별자치도 제주시 제주시 봉개동 297-4
126.595704,33.4909043,제주특별자치도 제주시 제주시 봉개동 1851-2
126.6155046,33.4653196,제주특별자치도 제주시 제주시 봉개동 227-39
126.6015823,33.49199997,제주특별자치도 제주시 제주시 봉개동 1494-2
126.5997095,33.48731639,제주특별자치도 제주시 제주시 봉개동 1353
126.6013381,33.48775507,제주특별자치도 제주시 제주시 봉개동 1407-1
126.6115743,33.46432973,제주특별자치도 제주시 제주시 봉개동 234-148
126.6160507,33.50371934,제주특별자치도 제주시 제주시 회천동 1315-1
126.5982754,33.49333481,제주특별자치도 제주시 제주시 봉개북3길 51
126.5869201,33.4946113,제주특별자치도 제주시 제주시 번영로 407
126.5938986,33.49512267,제주특별자치도 제주시 제주시 도련일동 1229-3
126.5471977,33.47696486,제주특별자치도 제주시 아라일동 1635-4
126.5497554,33.47359707,제주특별자치도 제주시 아라일동 6128-5
126.5623077,33.45474258,제주특별자치도 제주시 아라일동 1
126.5509922,33.45355923,제주특별자치도 제주시 아라일동 415-1
126.5734449,33.47153538,제주특별자치도 제주시 월평동 1379
126.5363231,33.47773882,제주특별자치도 제주시 아라일동 2726-12
126.5537331,33.48067382,제주특별자치도 제주시 아라이동 981-3
126.5489904,33.48555689,제주특별자치도 제주시 아라이동 1162-3
126.5436616,33.48443388,제주특별자치도 제주시 아라이동 1474-2
126.5756564,33.4696439,제주특별자치도 제주시 월평동 1038-4
126.576927,33.48692056,제주특별자치도 제주시 영평동 548-3
126.5646932,33.47460373,제주특별자치도 제주시 영평동 2796
126.5300499,33.47526298,제주특별자치도 제주시 오등동 604-5
126.5253989,33.47542192,제주특별자치도 제주시 오등동 1419-2
128.0718447,34.92883708,제주특별자치도 제주시 오동동 1720-1
126.5475538,33.48928825,제주특별자치도 제주시 아라이동 1324-2
126.5495995,33.48390223,제주특별자치도 제주시 아라이동 2995
126.5372795,33.47897411,제주특별자치도 제주시 아라일동 3000
126.543165,33.48196195,제주특별자치도 제주시 아라일동 2348-4 
126.5443584,33.49162714,제주특별자치도 제주시 아라이동 3008-1
126.5733291,33.48841278,제주특별자치도 제주시 영평동 1054-3
126.5326828,33.47697311,제주특별자치도 제주시 아라일동 3002
126.5350552,33.4662393,제주특별자치도 제주시 오등동 1887-2
126.5416718,33.49232686,제주특별자치도 제주시 아라이동 3025
126.5487502,33.4764261,제주특별자치도 제주시 아라일동 6111 
126.5486383,33.47525308,제주특별자치도 제주시 아라일동 6114-5
126.5465811,33.47524465,제주특별자치도 제주시 아라일동 6106-3
126.5509008,33.47177497,제주특별자치도 제주시 아라일동 6159 
126.5439495,33.47520677,제주특별자치도 제주시 아라일동 6096
126.5448252,33.47366232,제주특별자치도 제주시 아라일동 6093-4
126.5428034,33.46941161,제주특별자치도 제주시 아라일동 6064-4
126.5431316,33.47099863,제주특별자치도 제주시 아라일동 6068-9
126.5405312,33.47015315,제주특별자치도 제주시 아라일동 6061
126.5402894,33.47178834,제주특별자치도 제주시 아라일동 6059
126.540155,33.47350057,제주특별자치도 제주시 아라일동 6051
126.5406177,33.47609199,제주특별자치도 제주시 아라일동6046-5 
126.5441869,33.47202064,제주특별자치도 제주시 아라일동 6083-3 
126.5443482,33.47013697,제주특별자치도 제주시 아라일동 6075-6 
126.558319,33.47351079,제주특별자치도 제주시 아라이동 2986 
126.5431258,33.47300909,제주특별자치도 제주시 아라일동 6189
126.5531216,33.45947906,제주특별자치도 제주시 아라일동 2995-21
126.5469295,33.48235365,제주특별자치도 제주시 아라이동 1462-10
126.5710138,33.45450918,제주특별자치도 제주시 영평동 2165-1
126.5566618,33.43341563,제주특별자치도 제주시 아라일동 산67-5
126.5457666,33.46899025,제주특별자치도 제주시 아라일동 6078-7
126.5700742,33.47133451,제주특별자치도 제주시 영평동 2009-6
126.5819591,33.46343407,제주특별자치도 제주시 월평동 1378
126.5222853,33.46942019,제주특별자치도 제주시 오등동 1899
126.520737,33.48066602,제주특별자치도 제주시 도남동 1291
126.5530799,33.47852467,제주특별자치도 제주시 아라이동 942-6
126.5377812,33.48326168,제주특별자치도 제주시 아라일동 2612-29
126.5360989,33.48128216,제주특별자치도 제주시 아라일동 2618-3
126.5814511,33.47055975,제주특별자치도 제주시 월평동 275-6
126.5244248,33.4711217,제주특별자치도 제주시 오등동 1351-6
126.5212921,33.46797137,제주특별자치도 제주시 오등동 1679-5
126.5333015,33.46131427,제주특별자치도 제주시 오등동 408
126.5497978,33.45591071,제주특별자치도 제주시 아라일동 481-9
126.5650661,33.44666086,제주특별자치도 제주시 아라일동 2987-2
126.5621641,33.44593995,제주특별자치도 제주시 아라일동 362-47
126.5580459,33.42608481,제주특별자치도 제주시 아라일동 387-2
126.5741806,33.45026986,제주특별자치도 제주시 영평동 2232-2
126.5778133,33.45533253,제주특별자치도 제주시 월평동 651-4
126.5694116,33.48679685,제주특별자치도 제주시 영평동 2795
126.5646717,33.47413492,제주특별자치도 제주시 영평동 2351-1
126.5728528,33.46771954,제주특별자치도 제주시 월평동 945
126.5536202,33.47954772,제주특별자치도 제주시 아라이동 947-2
126.5462975,33.47972509,제주특별자치도 제주시 아라이동 1565-3
126.5421261,33.48637328,제주특별자치도 제주시 아라이동 2421-16
126.5402857,33.48678979,제주특별자치도 제주시 아라일동 2452-6
126.5433187,33.48704129,제주특별자치도 제주시 아라이동 2999-1
126.5475747,33.48721466,제주특별자치도 제주시 아라이동 1412-4
126.5381636,33.48590498,제주특별자치도 제주시 아라일동 2486-3
126.5204398,33.4686864,제주특별자치도 제주시 오등1길 167-9
126.5140254,33.49842471,제주특별자치도 제주시 서광로2길33-1
126.5113968,33.49515913,제주특별자치도 제주시 오라로10길6
126.5180596,33.49419746,제주특별자치도 제주시 오라로146
126.5123033,33.49092962,제주특별자치도 제주시 사평4길26
126.5205205,33.49677612,제주특별자치도 제주시 서사로25길18
126.5174679,33.49635211,제주특별자치도 제주시 오라일동1111
126.5192089,33.49793931,제주특별자치도 제주시 공설로11길1
126.5172641,33.49797134,제주특별자치도 제주시 공설로5길4
126.5097386,33.49655062,제주특별자치도 제주시 동성길41
126.5060291,33.49899558,제주특별자치도 제주시 월구길36
126.5037969,33.49874424,제주특별자치도 제주시 월구길12
126.5056216,33.49626619,제주특별자치도 제주시 모시길40
126.5159667,33.47626859,제주특별자치도 제주시 오라이동 899-3
126.510899,33.4926821,제주특별자치도 제주시 오라이동2180-6
126.5126923,33.49026639,제주특별자치도 제주시 사평4길33
126.5138345,33.48891594,제주특별자치도 제주시 연사길43
126.5141977,33.49022769,제주특별자치도 제주시 사평6길29
126.508909,33.48746397,제주특별자치도 제주시 연사길99
126.5085538,33.46874639,제주특별자치도 제주시 정실4길11
126.5105829,33.4665961,제주특별자치도 제주시 오라이동656-2
126.5173367,33.4919042,제주특별자치도 제주시 오남로6길7
126.514439,33.4912522,제주특별자치도 제주시 사평8길16
126.503008,33.49718886,제주특별자치도 제주시 월구1길21
126.5123086,33.48950915,제주특별자치도 제주시 사평4길43
126.5143297,33.46574172,제주특별자치도 제주시 정실동길15
126.5106508,33.48891263,제주특별자치도 제주시 오라이동 1986-3
126.5076289,33.48969498,제주특별자치도 제주시 연미3길 11
126.5145839,33.46770884,제주특별자치도 제주시 아연로253
126.5106028,33.49889573,제주특별자치도 제주시 동성길13
126.5079679,33.49370788,제주특별자치도 제주시 동성길76-3
126.5008999,33.49392617,제주특별자치도 제주시 월구1길70
126.5019528,33.48911844,제주특별자치도 제주시 연오로47
126.5129423,33.49248041,제주특별자치도 제주시 연삼로 194
126.5192959,33.49135387,제주특별자치도 제주시 오남로46
126.5155185,33.47510405,제주특별자치도 제주시 오남로231
126.5102107,33.45380359,제주특별자치도 제주시 오라남로46-80
126.5137998,33.45492243,제주특별자치도 제주시 오라남로57-10
126.5121665,33.44058325,제주특별자치도 제주시 오라이동3734
126.5020973,33.49815785,제주특별자치도 제주시 서광로52-10
126.5056562,33.48613231,제주특별자치도 제주시 오라이동3074-1
126.514156,33.47615189,제주특별자치도 제주시 오남로224
126.5003937,33.47784657,제주특별자치도 제주시 연오로173
126.502289,33.46800842,제주특별자치도 제주시 종천길75
126.5045414,33.47372212,제주특별자치도 제주시 아연로113-8
126.4972105,33.49321199,제주특별자치도 제주시 신대로45
126.5004905,33.4924288,제주특별자치도 제주시 연동320-14
126.5012456,33.49288877,제주특별자치도 제주시 연동320-12
126.500683,33.4900811,제주특별자치도 제주시 문연로27
126.4983562,33.4901176,제주특별자치도 제주시 문연로5
126.5007941,33.4887855,제주특별자치도 제주시 문연로30
126.4985907,33.48873957,제주특별자치도 제주시 문연로6
126.5006968,33.48788505,제주특별자치도 제주시 신대로13길37
126.5006034,33.48717179,제주특별자치도 제주시 신대로13길38-3
126.499412,33.48635496,제주특별자치도 제주시 선덕로 23
126.4983238,33.48633264,제주특별자치도 제주시 선덕로3길5
126.4969209,33.48751516,제주특별자치도 제주시 신대로109
126.5011734,33.48504562,제주특별자치도 제주시 선덕로8길 3
126.4998071,33.48387455,제주특별자치도 제주시 선덕로6길 19
126.497401,33.48496663,제주특별자치도 제주시 비월길 7
126.4985875,33.48235283,제주특별자치도 제주시 선덕로4길 35
126.4963925,33.49214905,제주특별자치도 제주시 신대로 60
126.4955173,33.49126819,제주특별자치도 제주시 삼무로11길 28
126.4938186,33.49319009,제주특별자치도 제주시 신광로1길10
126.492567,33.49303453,제주특별자치도 제주시 신대로8길42
126.4909766,33.49232937,제주특별자치도 제주시 신광로1길38
126.4929156,33.49209595,제주특별자치도 제주시 신대로8길38
126.4922557,33.49132817,제주특별자치도 제주시 연동270-15
126.4913479,33.49111707,제주특별자치도 제주시 신대로10길50
126.4932571,33.49029515,제주특별자치도 제주시 연동281-25
126.4959401,33.48797964,제주특별자치도 제주시 신대로104
126.4944867,33.48885404,제주특별자치도 제주시 연동292-82
126.4915389,33.48903742,제주특별자치도 제주시 연동272-31
126.4960335,33.48507515,제주특별자치도 제주시 신대로136
126.5005416,33.49648459,제주특별자치도 제주시 연동12길5
126.4916799,33.48500015,제주특별자치도 제주시 연동274-25
126.5006952,33.49618195,제주특별자치도 제주시 연동14길13
126.4927159,33.48354204,제주특별자치도 제주시 신대로20길33
126.4924286,33.48215184,제주특별자치도 제주시 신대로22길25
126.4913682,33.48224549,제주특별자치도 제주시 연동1373-4
126.4887863,33.49017065,제주특별자치도 제주시 삼무로19
126.4895756,33.48946115,제주특별자치도 제주시 제원길3-1
126.485562,33.4891172,제주특별자치도 제주시 신광로4길44
126.4889981,33.48827268,제주특별자치도 제주시 신광로6길14
126.4863013,33.48813674,제주특별자치도 제주시 신광로6길38
126.4867639,33.48786995,제주특별자치도 제주시 신광로6길25
126.4864206,33.48661917,제주특별자치도 제주시 연동1길40
126.4871417,33.48639174,제주특별자치도 제주시 제원4길18-1
126.5008222,33.49723282,제주특별자치도 제주시 연동4길12-11
126.4894059,33.4832205,제주특별자치도 제주시 연동268-6
126.4894762,33.4849456,제주특별자치도 제주시 연동263-18
126.4884065,33.4823339,제주특별자치도 제주시 연동1369
126.4963303,33.49416198,제주특별자치도 제주시 연삼로29-4
126.4930206,33.49429638,제주특별자치도 제주시 명주길2
126.4857616,33.49393244,제주특별자치도 제주시 연동1981
126.4835728,33.49533226,제주특별자치도 제주시 연동2446
126.482739,33.49516391,제주특별자치도 제주시 제성1길20
126.4893975,33.49335631,제주특별자치도 제주시 연동2307-8
126.4888763,33.49266958,제주특별자치도 제주시 연동2330-1
126.4873112,33.4933568,제주특별자치도 제주시 연동2305-7
126.4863687,33.49308878,제주특별자치도 제주시 도령로11길30
126.4866591,33.49184251,제주특별자치도 제주시 연동2319-1
126.485261,33.4909718,제주특별자치도 제주시 연동1965-2
126.4840697,33.4930661,제주특별자치도 제주시 연동2427
126.4826729,33.49130787,제주특별자치도 제주시 연동1958-1
126.4836776,33.49061391,제주특별자치도 제주시 연동 1962-1
126.4796792,33.49211961,제주특별자치도 제주시 남녕로54
126.4981459,33.48125755,제주특별자치도 제주시 연동437
126.4981374,33.47949914,제주특별자치도 제주시 아연로27
126.4958466,33.47945343,제주특별자치도 제주시 연동547-2
126.4917455,33.48142949,제주특별자치도 제주시 연동1374-2
126.4905351,33.4811556,제주특별자치도 제주시 과원북4길85
126.4914417,33.4799032,제주특별자치도 제주시 연동1504
126.490636,33.47864697,제주특별자치도 제주시 연동1499
126.4903955,33.47834688,제주특별자치도 제주시 연동1517
126.4893398,33.4776465,제주특별자치도 제주시 연동1519-2
126.4890949,33.4812115,제주특별자치도 제주시 과원북4길70
126.4895542,33.47606758,제주특별자치도 제주시 과원로60
126.4879921,33.47540388,제주특별자치도 제주시 연동1357-12
126.4875786,33.46861292,제주특별자치도 제주시 은수길85
126.491245,33.47579617,제주특별자치도 제주시 과원로70
126.4878801,33.46770558,제주특별자치도 제주시 연동1301
126.4970461,33.48097128,제주특별자치도 제주시 연동528-7
126.5005805,33.48096193,제주특별자치도 제주시 연오로140
126.4958202,33.48449728,제주특별자치도 제주시 신대로144
126.4863017,33.47586406,제주특별자치도 제주시 은수길5
126.487532,33.47325406,제주특별자치도 제주시 은수길33
126.4857331,33.48686629,제주특별자치도 제주시 노형동 916-1
126.4840737,33.48678464,제주특별자치도 제주시 노형동 910-7
126.4822914,33.4865068,제주특별자치도 제주시 노형동 912-11
126.4804606,33.47608509,제주특별자치도 제주시 노형동 677-2 
126.4834555,33.48458593,제주특별자치도 제주시 노형동 932-6 
126.4846047,33.48468272,제주특별자치도 제주시 노형동 938 
126.4856744,33.4851619,제주특별자치도 제주시 노형동 941-3 
126.4863236,33.4823148,제주특별자치도 제주시 노형동 722-3 
126.4858942,33.48354286,제주특별자치도 제주시 노형동 945 
126.4822926,33.48289836,제주특별자치도 제주시 노형동 921 
126.4845838,33.48234318,제주특별자치도 제주시 노형동 710-4
126.4824391,33.48867428,제주특별자치도 제주시 노형동 1293-2 
126.4813744,33.48916195,제주특별자치도 제주시 노형동 1274-8 
126.4778396,33.4884604,제주특별자치도 제주시 노형동 1066-1 
126.477432,33.4924184,제주특별자치도 제주시 노형동 1171-4 
126.4765593,33.48958958,제주특별자치도 제주시 노형동 1043-1 
126.4752748,33.49093161,제주특별자치도 제주시 노형동 1224-1 
126.4762003,33.48991507,제주특별자치도 제주시 노형동 1041-10 
126.4747926,33.49230965,제주특별자치도 제주시 노형동 1020-3 
126.4799528,33.4494239,제주특별자치도 제주시 해안동 3 
126.4777765,33.48636259,제주특별자치도 제주시 노형동 1282-1
126.4756102,33.48741305,제주특별자치도 제주시 노형동 1056-4 
126.4766726,33.48548032,제주특별자치도 제주시 노형동 1285-2 
126.4731124,33.48476111,제주특별자치도 제주시 노형동 2531-5 
126.4740238,33.48487761,제주특별자치도 제주시 노형동 2532-1 
126.4709021,33.48446545,제주특별자치도 제주시 노형동 2511-2
126.4743369,33.48361502,제주특별자치도 제주시 노형동 2534-3
126.4719369,33.48297994,제주특별자치도 제주시 노형동 2513-6 
126.4713126,33.48405998,제주특별자치도 제주시 노형동 2512-2
126.4785655,33.4760866,제주특별자치도 제주시 노형동 1561-2 
126.4706942,33.46874471,제주특별자치도 제주시 노형동 1977-6 
126.4546679,33.45467805,제주특별자치도 제주시 해안동 1829-1 
126.4685371,33.47005763,제주특별자치도 제주시 노형동3403-3
126.4528254,33.46238014,제주특별자치도 제주시 해안동 2094-1 
126.4797625,33.47783367,제주특별자치도 제주시 노형동 751
126.4651005,33.47795257,제주특별자치도 제주시 노형동3101-8
126.4785461,33.47996846,제주특별자치도 제주시 노형동 1461-1 
126.4817671,33.47916477,제주특별자치도 제주시 노형동 740-2
126.4750799,33.48895428,제주특별자치도 제주시 노형동 2580-1 
126.4732093,33.49060215,제주특별자치도 제주시 노형동 2575-1 
126.472074,33.4817965,제주특별자치도 제주시 노형동 2595-7 
126.4701556,33.48354842,제주특별자치도 제주시 노형동 2589-1 
126.4782633,33.48109998,제주특별자치도 제주시 노형동 3798-1 
126.471628,33.47782099,제주특별자치도 제주시 노형동 2292-1 
126.4752034,33.48641339,제주특별자치도 제주시 노형동 1060-4 
126.4782141,33.49304219,제주특별자치도 제주시 노형동 1094-4 
126.4570266,33.45237476,제주특별자치도 제주시 해안동 1862-1 
126.4835659,33.48135672,제주특별자치도 제주시 노형동 721
126.4621841,33.46914559,제주특별자치도 제주시 노형동 3511 
126.4756477,33.48151123,제주특별자치도 제주시 노형동 3803-6 
126.4776423,33.48037748,제주특별자치도 제주시 노형동 3800-6 
126.4770019,33.47950912,제주특별자치도 제주시 정원로 50 
126.4807049,33.48002892,제주특별자치도 제주시 진군길 22 
126.4769938,33.48288328,제주특별자치도 제주시 노형9길 9-4
126.4787014,33.48414463,제주특별자치도 제주시 노형동 3782 
126.4780764,33.47964005,제주특별자치도 제주시 노형동 3798-9 
126.4871896,33.45059611,제주특별자치도 제주시 노형동291-2
126.4843059,33.46917057,제주특별자치도 제주시 노형동571-3
126.4693905,33.48848825,제주특별자치도 제주시 노형동 2661
126.4724814,33.49172502,제주특별자치도 제주시 노형동 2737-7
126.4606918,33.47464863,제주특별자치도 제주시 노형동 3561
126.480029,33.46913237,제주특별자치도 제주시 노형동 541-1
